[
    {
      "id": "474e5046-deaf-4f9b-9a32-9797b778f047",
      "name": "TotalEnergies Berlin",
      "brand": "TotalEnergies",
      "street": "Margarete-Sommer-Str.",
      "place": "Berlin",
      "lat": 52.530831,
      "lng": 13.440946,
      "dist": 1.1,
      "diesel": 1.649,
      "e5": 1.869,
      "e10": 1.809,
      "isOpen": true,
      "houseNumber": "2",
      "postCode": 10407
    },
    {
      "id": "4429a7d9-fb2d-4c29-8cfe-2ca90323f9f8",
      "name": "TotalEnergies Berlin",
      "brand": "TotalEnergies",
      "street": "Holzmarktstr.",
      "place": "Berlin",
      "lat": 52.511399,
      "lng": 13.428477,
      "dist": 1.2,
      "diesel": 1.649,
      "e5": 1.859,
      "e10": 1.799,
      "isOpen": true,
      "houseNumber": "36-42",
      "postCode": 10243
    },
    {
      "id": "278130b1-e062-4a0f-80cc-19e486b4c024",
      "name": "Aral Tankstelle",
      "brand": "ARAL",
      "street": "Holzmarktstra\u00dfe",
      "place": "Berlin",
      "lat": 52.5141525,
      "lng": 13.4214869,
      "dist": 1.4,
      "diesel": 1.659,
      "e5": 1.889,
      "e10": 1.829,
      "isOpen": true,
      "houseNumber": "12\/14",
      "postCode": 10179
    },
    {
      "id": "1c4f126b-1f3c-4b38-9692-05c400ea8e61",
      "name": "Sprint Berlin Kniprodestr.",
      "brand": "Sprint",
      "street": "Kniprodestr.",
      "place": "Berlin",
      "lat": 52.53389,
      "lng": 13.444949,
      "dist": 1.5,
      "diesel": 1.639,
      "e5": 1.859,
      "e10": 1.799,
      "isOpen": true,
      "houseNumber": "25",
      "postCode": 10407
    },
    {
      "id": "38e0e779-b0f1-46ae-a35b-09f8e37024a1",
      "name": "TotalEnergies Berlin",
      "brand": "TotalEnergies",
      "street": "Storkower Str.",
      "place": "Berlin",
      "lat": 52.52744,
      "lng": 13.457798,
      "dist": 1.5,
      "diesel": 1.649,
      "e5": 1.869,
      "e10": 1.809,
      "isOpen": true,
      "houseNumber": "174",
      "postCode": 10369
    },
    {
      "id": "94e70fc4-b22f-4e5a-877f-bc1082cdae81",
      "name": "TotalEnergies Berlin",
      "brand": "TotalEnergies",
      "street": "Prenzlauer Allee",
      "place": "Berlin",
      "lat": 52.528899,
      "lng": 13.41808,
      "dist": 1.6,
      "diesel": 1.639,
      "e5": 1.869,
      "e10": 1.809,
      "isOpen": true,
      "houseNumber": "1-4",
      "postCode": 10405
    },
    {
      "id": "579d25fd-acb9-445a-9494-f7fe0fa7ce4a",
      "name": "Elan Berlin",
      "brand": "ELAN",
      "street": "Storkower Str.",
      "place": "Berlin",
      "lat": 52.535342,
      "lng": 13.450748,
      "dist": 1.8,
      "diesel": 1.639,
      "e5": 1.859,
      "e10": 1.799,
      "isOpen": true,
      "houseNumber": "116",
      "postCode": 10407
    },
    {
      "id": "1723edea-8e01-4de3-8c5e-ca227a49e2c3",
      "name": "Shell Berlin Skalitzer Str. 48",
      "brand": "Shell",
      "street": "Skalitzer Str.",
      "place": "Berlin",
      "lat": 52.499217,
      "lng": 13.433074,
      "dist": 2.4,
      "diesel": 1.669,
      "e5": 1.859,
      "e10": 1.819,
      "isOpen": true,
      "houseNumber": "48",
      "postCode": 10997
    },
    {
      "id": "448e4ee6-3404-4868-b7e6-ea59a5c78eb9",
      "name": "Aral Tankstelle",
      "brand": "ARAL",
      "street": "Skalitzer Stra\u00dfe",
      "place": "Berlin",
      "lat": 52.498703,
      "lng": 13.4225378,
      "dist": 2.7,
      "diesel": 1.679,
      "e5": 1.889,
      "e10": 1.829,
      "isOpen": true,
      "houseNumber": "26",
      "postCode": 10999
    },
    {
      "id": "594eafdd-3537-45ae-8bf0-d667aaa25454",
      "name": "Shell Berlin Oranienstr. 138",
      "brand": "Shell",
      "street": "Oranienstr.",
      "place": "Berlin",
      "lat": 52.504122,
      "lng": 13.408138,
      "dist": 2.8,
      "diesel": 1.649,
      "e5": 1.859,
      "e10": 1.799,
      "isOpen": true,
      "houseNumber": "138",
      "postCode": 10969
    },
    {
      "id": "c1d9c3c2-a6de-4111-8e63-81bee1189b50",
      "name": "Aral Tankstelle",
      "brand": "ARAL",
      "street": "Vor dem Schlesischen Tor",
      "place": "Berlin",
      "lat": 52.4968567,
      "lng": 13.4496136,
      "dist": 2.8,
      "diesel": 1.669,
      "e5": 1.879,
      "e10": 1.819,
      "isOpen": true,
      "houseNumber": "",
      "postCode": 10997
    },
    {
      "id": "813ed58c-b58d-4d17-895b-2078cb302649",
      "name": "Aral Tankstelle",
      "brand": "ARAL",
      "street": "Prinzenstra\u00dfe",
      "place": "Berlin",
      "lat": 52.5018959,
      "lng": 13.4098387,
      "dist": 2.9,
      "diesel": 1.679,
      "e5": 1.899,
      "e10": 1.839,
      "isOpen": true,
      "houseNumber": "29",
      "postCode": 10969
    },
    {
      "id": "51d4b660-a095-1aa0-e100-80009459e03a",
      "name": "JET BERLIN HERZBERGSTR. 27",
      "brand": "JET",
      "street": "HERZBERGSTR.",
      "place": "BERLIN",
      "lat": 52.52643,
      "lng": 13.48864,
      "dist": 3.5,
      "diesel": 1.629,
      "e5": 1.849,
      "e10": 1.789,
      "isOpen": true,
      "houseNumber": "27",
      "postCode": 10365
    },
    {
      "id": "a0f35e83-2d97-4bfb-b90e-f068fe8c73e1",
      "name": "TotalEnergies Berlin",
      "brand": "TotalEnergies",
      "street": "Indira-Gandhi-Str.",
      "place": "Berlin",
      "lat": 52.547499,
      "lng": 13.46808,
      "dist": 3.6,
      "diesel": 1.659,
      "e5": 1.879,
      "e10": 1.819,
      "isOpen": true,
      "houseNumber": "106-109",
      "postCode": 13053
    },
    {
      "id": "8953fadc-921c-4040-959c-4c6bde9d9eae",
      "name": "Shell Berlin Buchberger Str. 30",
      "brand": "Shell",
      "street": "Buchberger Str.",
      "place": "Berlin",
      "lat": 52.507044,
      "lng": 13.485837,
      "dist": 3.6,
      "diesel": 1.659,
      "e5": 1.859,
      "e10": 1.819,
      "isOpen": true,
      "houseNumber": "30",
      "postCode": 10365
    },
    {
      "id": "d40ad39a-73ba-476f-af0f-d8cfe3046dd7",
      "name": "Aral Tankstelle",
      "brand": "ARAL",
      "street": "Brunnenstra\u00dfe",
      "place": "Berlin",
      "lat": 52.5407867,
      "lng": 13.3934574,
      "dist": 3.7,
      "diesel": 1.669,
      "e5": 1.899,
      "e10": 1.839,
      "isOpen": true,
      "houseNumber": "119",
      "postCode": 13355
    },
    {
      "id": "c9dc3f9b-e10a-47b4-a3fe-451b2cb1daad",
      "name": "Aral Tankstelle",
      "brand": "ARAL",
      "street": "Frankfurter Allee",
      "place": "Berlin",
      "lat": 52.51144,
      "lng": 13.4938612,
      "dist": 3.9,
      "diesel": 1.639,
      "e5": 1.869,
      "e10": 1.809,
      "isOpen": true,
      "houseNumber": "214",
      "postCode": 10365
    },
    {
      "id": "67978117-35b5-4089-a53a-9121ccfbb653",
      "name": "Sprint Berlin Reuter Str.",
      "brand": "Sprint",
      "street": "Reuter Str.",
      "place": "Berlin",
      "lat": 52.48449,
      "lng": 13.429329,
      "dist": 4.1,
      "diesel": 1.649,
      "e5": 1.869,
      "e10": 1.809,
      "isOpen": true,
      "houseNumber": "18-19",
      "postCode": 12043
    },
    {
      "id": "51d4b477-a095-1aa0-e100-80009459e03a",
      "name": "JET BERLIN SIEGFRIEDSTR. 179",
      "brand": "JET",
      "street": "SIEGFRIEDSTR.",
      "place": "BERLIN",
      "lat": 52.52139,
      "lng": 13.49912,
      "dist": 4.1,
      "diesel": 1.629,
      "e5": 1.849,
      "e10": 1.789,
      "isOpen": true,
      "houseNumber": "179",
      "postCode": 10365
    },
    {
      "id": "005056ba-7cb6-1ed2-bceb-8e5fec1a0d35",
      "name": "star Tankstelle",
      "brand": "STAR",
      "street": "Siegfriedstra\u00dfe",
      "place": "Berlin",
      "lat": 52.524395,
      "lng": 13.499269,
      "dist": 4.2,
      "diesel": 1.629,
      "e5": 1.849,
      "e10": 1.789,
      "isOpen": true,
      "houseNumber": "170",
      "postCode": 10365
    },
    {
      "id": "7d8ba49c-b9ec-4672-b76f-251b3065b9af",
      "name": "Elan Berlin",
      "brand": "ELAN",
      "street": "Tino-Schwierzina-Str.",
      "place": "Berlin",
      "lat": 52.558409,
      "lng": 13.432754,
      "dist": 4.2,
      "diesel": null,
      "e5": 1.859,
      "e10": 1.799,
      "isOpen": true,
      "houseNumber": "37",
      "postCode": 13089
    },
    {
      "id": "0591a60a-a167-4cc5-a200-c21d4a1e698e",
      "name": "Shell Berlin Berliner Str. 83",
      "brand": "Shell",
      "street": "Berliner Str.",
      "place": "Berlin",
      "lat": 52.556313,
      "lng": 13.41506,
      "dist": 4.2,
      "diesel": 1.659,
      "e5": 1.859,
      "e10": 1.819,
      "isOpen": true,
      "houseNumber": "83",
      "postCode": 13189
    },
    {
      "id": "51d4b4cf-a095-1aa0-e100-80009459e03a",
      "name": "JET BERLIN PRENZLAUER PROMENADE 41-42",
      "brand": "JET",
      "street": "PRENZLAUER PROMENADE",
      "place": "BERLIN",
      "lat": 52.55961,
      "lng": 13.42878,
      "dist": 4.3,
      "diesel": 1.629,
      "e5": 1.849,
      "e10": 1.789,
      "isOpen": true,
      "houseNumber": "41-42",
      "postCode": 13089
    },
    {
      "id": "c3e4c888-767d-471e-bd5e-760eabc116c2",
      "name": "Aral Tankstelle",
      "brand": "ARAL",
      "street": "Sonnenallee",
      "place": "Berlin",
      "lat": 52.48148,
      "lng": 13.44137,
      "dist": 4.4,
      "diesel": 1.649,
      "e5": 1.889,
      "e10": 1.829,
      "isOpen": true,
      "houseNumber": "113",
      "postCode": 12045
    },
    {
      "id": "33abf29f-9c16-4abf-a1b2-409476b42f97",
      "name": "Esso Tankstelle",
      "brand": "ESSO",
      "street": "GNEISENAUSTR. 104-106",
      "place": "BERLIN",
      "lat": 52.492719,
      "lng": 13.390687,
      "dist": 4.5,
      "diesel": 1.669,
      "e5": 1.899,
      "e10": 1.839,
      "isOpen": true,
      "houseNumber": "",
      "postCode": 10961
    },
    {
      "id": "cba00de3-9841-49ce-943c-0bcded76ba18",
      "name": "TotalEnergies Berlin",
      "brand": "TotalEnergies",
      "street": "Chausseestr.",
      "place": "Berlin",
      "lat": 52.537242,
      "lng": 13.375376,
      "dist": 4.6,
      "diesel": 1.679,
      "e5": 1.899,
      "e10": 1.839,
      "isOpen": true,
      "houseNumber": "61-62",
      "postCode": 10115
    },
    {
      "id": "5b24dba1-c64c-4480-9943-ac3f23e43912",
      "name": "TotalEnergies Berlin",
      "brand": "TotalEnergies",
      "street": "Tempelhofer Ufer",
      "place": "Berlin",
      "lat": 52.500478,
      "lng": 13.376696,
      "dist": 4.7,
      "diesel": 1.679,
      "e5": 1.899,
      "e10": 1.839,
      "isOpen": true,
      "houseNumber": "33-35",
      "postCode": 10963
    },
    {
      "id": "799e88d8-f4a6-4946-a00d-bd5303bb7fa6",
      "name": "TotalEnergies Berlin",
      "brand": "TotalEnergies",
      "street": "Roelckestr.",
      "place": "Berlin",
      "lat": 52.562493,
      "lng": 13.459476,
      "dist": 4.8,
      "diesel": 1.639,
      "e5": 1.859,
      "e10": 1.799,
      "isOpen": true,
      "houseNumber": "74-76",
      "postCode": 13088
    },
    {
      "id": "005056ba-7cb6-1ee5-a8e8-3d3efcc90710",
      "name": "star Tankstelle",
      "brand": "STAR",
      "street": "Berliner Allee",
      "place": "Berlin",
      "lat": 52.560806,
      "lng": 13.467082,
      "dist": 4.8,
      "diesel": 1.629,
      "e5": 1.849,
      "e10": 1.789,
      "isOpen": true,
      "houseNumber": "257",
      "postCode": 13088
    },
    {
      "id": "8a027639-18de-4314-93e1-224c4cf6b634",
      "name": "JET BERLIN ROMAIN-ROLLAND-STR. 13",
      "brand": "JET",
      "street": "ROMAIN-ROLLAND-STR.",
      "place": "BERLIN",
      "lat": 52.56453,
      "lng": 13.44722,
      "dist": 4.9,
      "diesel": 1.629,
      "e5": 1.849,
      "e10": 1.789,
      "isOpen": true,
      "houseNumber": "13",
      "postCode": 13089
    },
    {
      "id": "88641cd8-5ece-473d-8b04-7a0b06ee8a2e",
      "name": "Shell Berlin Juelicher Str. 1",
      "brand": "Shell",
      "street": "Juelicher Str.",
      "place": "Berlin",
      "lat": 52.554854,
      "lng": 13.391877,
      "dist": 4.9,
      "diesel": 1.679,
      "e5": 1.869,
      "e10": 1.829,
      "isOpen": true,
      "houseNumber": "1",
      "postCode": 13357
    },
    {
      "id": "e1a15081-25ce-9107-e040-0b0a3dfe563c",
      "name": "Berlin, Romain-Rolland-Str. 2",
      "brand": "HEM",
      "street": "Romain-Rolland-Str.",
      "place": "Berlin",
      "lat": 52.564815,
      "lng": 13.448848,
      "dist": 4.9,
      "diesel": 1.629,
      "e5": 1.849,
      "e10": 1.789,
      "isOpen": true,
      "houseNumber": "2",
      "postCode": 13089
    },
    {
      "id": "51863198-2987-48b8-aa2e-dd949bc403dc",
      "name": "TotalEnergies Berlin",
      "brand": "TotalEnergies",
      "street": "Bulgarische Str.",
      "place": "Berlin",
      "lat": 52.483773,
      "lng": 13.478669,
      "dist": 5,
      "diesel": 1.639,
      "e5": 1.859,
      "e10": 1.799,
      "isOpen": true,
      "houseNumber": "9",
      "postCode": 12435
    },
    {
      "id": "ee1660c7-66d7-4ff4-a4e5-576cb0d3f017",
      "name": "Aral Tankstelle",
      "brand": "ARAL",
      "street": "M\u00fchlenstra\u00dfe",
      "place": "Berlin",
      "lat": 52.5638351,
      "lng": 13.4080009,
      "dist": 5.2,
      "diesel": 1.649,
      "e5": 1.869,
      "e10": 1.809,
      "isOpen": true,
      "houseNumber": "26",
      "postCode": 13187
    },
    {
      "id": "c1cb3a06-ea33-471b-a151-37eba5b29597",
      "name": "Shell Berlin Prinzenallee 20",
      "brand": "Shell",
      "street": "Prinzenallee",
      "place": "Berlin",
      "lat": 52.555243,
      "lng": 13.38423,
      "dist": 5.3,
      "diesel": 1.589,
      "e5": 1.809,
      "e10": 1.769,
      "isOpen": true,
      "houseNumber": "20",
      "postCode": 13357
    },
    {
      "id": "e1a15081-25cc-9107-e040-0b0a3dfe563c",
      "name": "Berlin, Prenzlauer Promenade 68",
      "brand": "HEM",
      "street": "Prenzlauer Promenade",
      "place": "Berlin",
      "lat": 52.568175,
      "lng": 13.428553,
      "dist": 5.3,
      "diesel": 1.629,
      "e5": 1.849,
      "e10": 1.789,
      "isOpen": true,
      "houseNumber": "68",
      "postCode": 13089
    },
    {
      "id": "005056ba-7cb6-1ee5-b187-bc79c0a8d9ec",
      "name": "star Tankstelle",
      "brand": "STAR",
      "street": "Prenzlauer Promenade",
      "place": "Berlin",
      "lat": 52.568847,
      "lng": 13.428555,
      "dist": 5.4,
      "diesel": 1.629,
      "e5": 1.849,
      "e10": 1.789,
      "isOpen": true,
      "houseNumber": "72-73",
      "postCode": 13089
    },
    {
      "id": "e1a15081-24c8-9107-e040-0b0a3dfe563c",
      "name": "Berlin, Berliner Allee 320",
      "brand": "HEM",
      "street": "Berliner Allee",
      "place": "Berlin",
      "lat": 52.565454,
      "lng": 13.472317,
      "dist": 5.5,
      "diesel": 1.629,
      "e5": 1.849,
      "e10": 1.789,
      "isOpen": true,
      "houseNumber": "320",
      "postCode": 13088
    },
    {
      "id": "005056ba-7cb6-1ed2-bceb-9326bdff0d38",
      "name": "star Tankstelle",
      "brand": "STAR",
      "street": "Rhinstra\u00dfe",
      "place": "Berlin",
      "lat": 52.522687,
      "lng": 13.519067,
      "dist": 5.5,
      "diesel": 1.629,
      "e5": 1.849,
      "e10": 1.789,
      "isOpen": true,
      "houseNumber": "47",
      "postCode": 10315
    },
    {
      "id": "005056ba-7cb6-1ed2-bceb-aaf1f2c40d43",
      "name": "star Tankstelle",
      "brand": "STAR",
      "street": "Malchower Chaussee",
      "place": "Berlin",
      "lat": 52.56616,
      "lng": 13.471278,
      "dist": 5.5,
      "diesel": 1.629,
      "e5": 1.849,
      "e10": 1.789,
      "isOpen": true,
      "houseNumber": "1",
      "postCode": 13088
    },
    {
      "id": "858d8d7c-1bf2-44ed-a33b-71185fce93ff",
      "name": "Aral Tankstelle",
      "brand": "ARAL",
      "street": "Rathenower Stra\u00dfe",
      "place": "Berlin",
      "lat": 52.52546,
      "lng": 13.3568907,
      "dist": 5.5,
      "diesel": 1.699,
      "e5": 1.909,
      "e10": 1.849,
      "isOpen": true,
      "houseNumber": "8",
      "postCode": 10559
    },
    {
      "id": "ade023de-dad0-40e7-bcc3-0a25e9a85c77",
      "name": "TotalEnergies Berlin",
      "brand": "TotalEnergies",
      "street": "Rhinstr.",
      "place": "Berlin",
      "lat": 52.536691,
      "lng": 13.51541,
      "dist": 5.5,
      "diesel": 1.639,
      "e5": 1.859,
      "e10": 1.799,
      "isOpen": true,
      "houseNumber": "175",
      "postCode": 13053
    },
    {
      "id": "78f4e4d2-355e-45d4-a02f-fd45adb5dcef",
      "name": "Aral Tankstelle",
      "brand": "ARAL",
      "street": "Dudenstra\u00dfe",
      "place": "Berlin",
      "lat": 52.4848938,
      "lng": 13.3813658,
      "dist": 5.6,
      "diesel": 1.679,
      "e5": 1.909,
      "e10": 1.849,
      "isOpen": true,
      "houseNumber": "19",
      "postCode": 10965
    },
    {
      "id": "5e2048bb-5930-473d-a1eb-98b56934286b",
      "name": "TotalEnergies Berlin",
      "brand": "TotalEnergies",
      "street": "Rhinstr.",
      "place": "Berlin",
      "lat": 52.518378,
      "lng": 13.520045,
      "dist": 5.6,
      "diesel": 1.639,
      "e5": 1.859,
      "e10": 1.799,
      "isOpen": true,
      "houseNumber": "52",
      "postCode": 12681
    },
    {
      "id": "005056ba-7cb6-1ed5-a6a1-930ae49a5411",
      "name": "star Tankstelle",
      "brand": "STAR",
      "street": "Hansastra\u00dfe",
      "place": "Berlin",
      "lat": 52.558862,
      "lng": 13.491732,
      "dist": 5.6,
      "diesel": 1.629,
      "e5": 1.849,
      "e10": 1.789,
      "isOpen": true,
      "houseNumber": "199",
      "postCode": 13088
    },
    {
      "id": "51d4b708-a095-1aa0-e100-80009459e03a",
      "name": "JET BERLIN KREUZBERGSTR. 41",
      "brand": "JET",
      "street": "KREUZBERGSTR.",
      "place": "BERLIN",
      "lat": 52.4892,
      "lng": 13.37444,
      "dist": 5.6,
      "diesel": 1.659,
      "e5": 1.889,
      "e10": 1.829,
      "isOpen": true,
      "houseNumber": "41",
      "postCode": 10965
    },
    {
      "id": "37ff6f07-a657-4aa8-8cfd-eedfccbffefe",
      "name": "Shell Berlin Paulstr. 20",
      "brand": "Shell",
      "street": "Paulstr.",
      "place": "Berlin",
      "lat": 52.51986,
      "lng": 13.355243,
      "dist": 5.6,
      "diesel": 1.699,
      "e5": 1.889,
      "e10": 1.849,
      "isOpen": true,
      "houseNumber": "20",
      "postCode": 10557
    },
    {
      "id": "057a6924-d3a7-4ff3-8c9e-1be2e52c3142",
      "name": "Sprint Berlin Blankenburger Str.",
      "brand": "Sprint",
      "street": "Blankenburger Str.",
      "place": "Berlin",
      "lat": 52.57132,
      "lng": 13.442825,
      "dist": 5.6,
      "diesel": 1.629,
      "e5": 1.849,
      "e10": 1.789,
      "isOpen": true,
      "houseNumber": "96-99",
      "postCode": 13089
    },
    {
      "id": "51d4b57f-a095-1aa0-e100-80009459e03a",
      "name": "JET BERLIN RHINSTR. 240",
      "brand": "JET",
      "street": "RHINSTR.",
      "place": "BERLIN",
      "lat": 52.54725,
      "lng": 13.50949,
      "dist": 5.6,
      "diesel": 1.629,
      "e5": 1.849,
      "e10": 1.789,
      "isOpen": true,
      "houseNumber": "240",
      "postCode": 13055
    },
    {
      "id": "b0d8aa54-047d-40ee-99ee-9542bcfaba63",
      "name": "Shell Berlin Rothenbachstr. 1",
      "brand": "Shell",
      "street": "Rothenbachstr.",
      "place": "Berlin",
      "lat": 52.571592,
      "lng": 13.429518,
      "dist": 5.7,
      "diesel": 1.659,
      "e5": 1.859,
      "e10": 1.819,
      "isOpen": true,
      "houseNumber": "1",
      "postCode": 13089
    },
    {
      "id": "005056ba-7cb6-1ed2-bceb-8f11d216cd35",
      "name": "star Tankstelle",
      "brand": "STAR",
      "street": "Hansastra\u00dfe",
      "place": "Berlin",
      "lat": 52.55996,
      "lng": 13.49641,
      "dist": 5.9,
      "diesel": 1.629,
      "e5": 1.849,
      "e10": 1.789,
      "isOpen": true,
      "houseNumber": "220",
      "postCode": 13051
    },
    {
      "id": "7cbddee6-be90-4954-b392-19467cdbd1e4",
      "name": "Shell Berlin Damerowstr. 22\/23",
      "brand": "Shell",
      "street": "Damerowstr.",
      "place": "Berlin",
      "lat": 52.57286,
      "lng": 13.421184,
      "dist": 5.9,
      "diesel": 1.659,
      "e5": 1.859,
      "e10": 1.819,
      "isOpen": true,
      "houseNumber": "22\/23",
      "postCode": 13187
    },
    {
      "id": "5f379d51-e2c8-47d8-bf3e-807e7f3737a7",
      "name": "TotalEnergies Berlin",
      "brand": "TotalEnergies",
      "street": "Landsberger Allee",
      "place": "Berlin",
      "lat": 52.535395,
      "lng": 13.522849,
      "dist": 6,
      "diesel": 1.639,
      "e5": 1.859,
      "e10": 1.799,
      "isOpen": true,
      "houseNumber": "376",
      "postCode": 12681
    },
    {
      "id": "9209bab7-f487-4776-9f47-5ddbf7aebc97",
      "name": "Aral Tankstelle",
      "brand": "ARAL",
      "street": "Grenzallee",
      "place": "Berlin",
      "lat": 52.4690437,
      "lng": 13.461875,
      "dist": 6,
      "diesel": 1.649,
      "e5": 1.869,
      "e10": 1.809,
      "isOpen": true,
      "houseNumber": "6",
      "postCode": 12057
    },
    {
      "id": "e2fc30d5-dfd7-43e8-b61d-16ba4cb0fc01",
      "name": "TotalEnergies Berlin",
      "brand": "TotalEnergies",
      "street": "Blockdammweg",
      "place": "Berlin",
      "lat": 52.48291,
      "lng": 13.502177,
      "dist": 6.1,
      "diesel": 1.659,
      "e5": 1.869,
      "e10": 1.819,
      "isOpen": true,
      "houseNumber": "6",
      "postCode": 10317
    },
    {
      "id": "005056ba-7cb6-1ed2-bceb-9f68394dcd3d",
      "name": "star Tankstelle",
      "brand": "STAR",
      "street": "Gehrenseestra\u00dfe",
      "place": "Berlin",
      "lat": 52.550769,
      "lng": 13.51377,
      "dist": 6.1,
      "diesel": 1.629,
      "e5": 1.849,
      "e10": 1.789,
      "isOpen": true,
      "houseNumber": "10",
      "postCode": 13053
    },
    {
      "id": "6b2bd0b8-22db-424e-8547-c2abcfe06a6c",
      "name": "Westfehling Tankstelle GmbH",
      "brand": "",
      "street": "Quitzowstrasse",
      "place": "Berlin",
      "lat": 52.5353354,
      "lng": 13.3503522,
      "dist": 6.1,
      "diesel": 1.609,
      "e5": 1.829,
      "e10": 1.769,
      "isOpen": true,
      "houseNumber": "33",
      "postCode": 10559
    },
    {
      "id": "51d4b4e0-a095-1aa0-e100-80009459e03a",
      "name": "JET BERLIN KARL-MARX-STR. 259-263",
      "brand": "JET",
      "street": "KARL-MARX-STR.",
      "place": "BERLIN",
      "lat": 52.46579,
      "lng": 13.44277,
      "dist": 6.1,
      "diesel": 1.639,
      "e5": 1.859,
      "e10": 1.799,
      "isOpen": true,
      "houseNumber": "259-263",
      "postCode": 12057
    },
    {
      "id": "285aaf2a-f363-4c83-9fd2-4c9cc34833b2",
      "name": "TotalEnergies Berlin",
      "brand": "TotalEnergies",
      "street": "Ribnitzer Str.",
      "place": "Berlin",
      "lat": 52.565599,
      "lng": 13.491795,
      "dist": 6.2,
      "diesel": 1.639,
      "e5": 1.859,
      "e10": 1.799,
      "isOpen": true,
      "houseNumber": "42",
      "postCode": 13051
    },
    {
      "id": "2d3cf56e-d3a7-4d3f-9469-d1ba249a2fe3",
      "name": "Sprint Berlin Residenzstr.",
      "brand": "Sprint",
      "street": "Residenzstr.",
      "place": "Berlin",
      "lat": 52.55887,
      "lng": 13.37058,
      "dist": 6.2,
      "diesel": 1.649,
      "e5": 1.859,
      "e10": 1.799,
      "isOpen": true,
      "houseNumber": "79",
      "postCode": 13409
    },
    {
      "id": "309acc6e-a0da-4a96-bb7f-5f68f06065b3",
      "name": "Shell Berlin Karl-Marx-Str. 267",
      "brand": "Shell",
      "street": "Karl-Marx-Str.",
      "place": "Berlin",
      "lat": 52.465242,
      "lng": 13.443165,
      "dist": 6.2,
      "diesel": 1.659,
      "e5": 1.879,
      "e10": 1.819,
      "isOpen": true,
      "houseNumber": "267",
      "postCode": 12057
    },
    {
      "id": "eb122029-e957-4417-b06d-5d2d168e05a2",
      "name": "Shell Berlin Rummelsburger Landstr. 16",
      "brand": "Shell",
      "street": "Rummelsburger Landstr.",
      "place": "Berlin",
      "lat": 52.480922,
      "lng": 13.502139,
      "dist": 6.2,
      "diesel": 1.639,
      "e5": 1.879,
      "e10": 1.839,
      "isOpen": false,
      "houseNumber": "16",
      "postCode": 12459
    },
    {
      "id": "e1a15081-24ce-9107-e040-0b0a3dfe563c",
      "name": "Berlin, Alt-Friedrichsfelde 61",
      "brand": "TAMOIL",
      "street": "Alt-Friedrichsfelde",
      "place": "Berlin",
      "lat": 52.509626,
      "lng": 13.531036,
      "dist": 6.4,
      "diesel": 1.639,
      "e5": 1.859,
      "e10": 1.799,
      "isOpen": true,
      "houseNumber": "61",
      "postCode": 10315
    },
    {
      "id": "51d4b47d-a095-1aa0-e100-80009459e03a",
      "name": "JET BERLIN AM TIERPARK 126",
      "brand": "JET",
      "street": "AM TIERPARK",
      "place": "BERLIN",
      "lat": 52.49507,
      "lng": 13.52445,
      "dist": 6.5,
      "diesel": 1.629,
      "e5": 1.849,
      "e10": 1.789,
      "isOpen": true,
      "houseNumber": "126",
      "postCode": 10319
    },
    {
      "id": "ea48ea88-561e-4b5a-87e5-9402768b367e",
      "name": "Esso Tankstelle",
      "brand": "ESSO",
      "street": "LESSINGSTR. 4",
      "place": "BERLIN",
      "lat": 52.519708,
      "lng": 13.341412,
      "dist": 6.5,
      "diesel": 1.699,
      "e5": 1.889,
      "e10": 1.829,
      "isOpen": true,
      "houseNumber": "",
      "postCode": 10555
    },
    {
      "id": "ae8a800a-788e-4264-8713-19053280ccbe",
      "name": "BERLIN - WESTHAFENSTRASSE 1",
      "brand": "AGIP ENI",
      "street": "Westhafenstrasse",
      "place": "Berlin",
      "lat": 52.53828412371,
      "lng": 13.344086726212,
      "dist": 6.6,
      "diesel": 1.619,
      "e5": 1.839,
      "e10": 1.779,
      "isOpen": true,
      "houseNumber": "1",
      "postCode": 13353
    },
    {
      "id": "7d979083-b588-4513-81a1-86451ce5c7a0",
      "name": "Aral Tankstelle",
      "brand": "ARAL",
      "street": "M\u00e4rkische Allee",
      "place": "Berlin",
      "lat": 52.5320244,
      "lng": 13.5363054,
      "dist": 6.8,
      "diesel": 1.639,
      "e5": 1.859,
      "e10": 1.799,
      "isOpen": true,
      "houseNumber": "155",
      "postCode": 12681
    },
    {
      "id": "58c009f1-4250-428a-b5de-0efd4b200177",
      "name": "Shell Berlin Martin-Luther-Str. 29",
      "brand": "Shell",
      "street": "Martin-Luther-Str.",
      "place": "Berlin",
      "lat": 52.496247,
      "lng": 13.3466,
      "dist": 6.8,
      "diesel": 1.679,
      "e5": 1.889,
      "e10": 1.829,
      "isOpen": true,
      "houseNumber": "29",
      "postCode": 10777
    },
    {
      "id": "a5b33c1b-c346-444b-8689-8c8087834dcb",
      "name": "TotalEnergies Berlin",
      "brand": "TotalEnergies",
      "street": "Am Feuchten Winkel",
      "place": "Berlin",
      "lat": 52.582052,
      "lng": 13.43239,
      "dist": 6.8,
      "diesel": 1.649,
      "e5": 1.849,
      "e10": 1.809,
      "isOpen": true,
      "houseNumber": "11",
      "postCode": 13127
    },
    {
      "id": "451ba5c2-44b6-43a9-ab1e-aa6419ae6e74",
      "name": "Aral Tankstelle",
      "brand": "ARAL",
      "street": "Seestra\u00dfe",
      "place": "Berlin",
      "lat": 52.546402,
      "lng": 13.3451872,
      "dist": 6.9,
      "diesel": 1.699,
      "e5": 1.909,
      "e10": 1.849,
      "isOpen": true,
      "houseNumber": "18\/19",
      "postCode": 13353
    },
    {
      "id": "5c881fbf-572e-4b35-b9c4-fccd66c11916",
      "name": "Aral Tankstelle",
      "brand": "ARAL",
      "street": "Alt-Friedrichsfelde",
      "place": "Berlin",
      "lat": 52.5103149,
      "lng": 13.5384874,
      "dist": 6.9,
      "diesel": 1.639,
      "e5": 1.859,
      "e10": 1.799,
      "isOpen": true,
      "houseNumber": "64",
      "postCode": 12683
    },
    {
      "id": "517d50ad-c20a-451a-9683-42b3038656a3",
      "name": "Sb Berlin Marzahn M\u00e4rkische Allee 61",
      "brand": "SB",
      "street": "M\u00e4rkische Allee",
      "place": "Berlin Marzahn",
      "lat": 52.5217,
      "lng": 13.5404,
      "dist": 6.9,
      "diesel": 1.569,
      "e5": 1.779,
      "e10": 1.739,
      "isOpen": true,
      "houseNumber": "61",
      "postCode": 12681
    },
    {
      "id": "12e6b614-87d4-4413-afd2-7dd783505ee8",
      "name": "Hans Engelke Energie OHG",
      "brand": "",
      "street": "Tempelhofer Weg",
      "place": "Berlin",
      "lat": 52.458705,
      "lng": 13.422004,
      "dist": 7,
      "diesel": 1.588,
      "e5": 1.818,
      "e10": 1.788,
      "isOpen": true,
      "houseNumber": "10",
      "postCode": 12099
    },
    {
      "id": "297fe76f-7c3d-4410-bea1-279834e6a36c",
      "name": "Aral Tankstelle",
      "brand": "ARAL",
      "street": "Levetzowstra\u00dfe",
      "place": "Berlin",
      "lat": 52.5210838,
      "lng": 13.3340044,
      "dist": 7,
      "diesel": 1.699,
      "e5": 1.889,
      "e10": 1.829,
      "isOpen": false,
      "houseNumber": "9",
      "postCode": 10555
    },
    {
      "id": "c7565063-01dd-4181-82a9-a9012f2380ae",
      "name": "Q1 Tankstelle",
      "brand": "Q1",
      "street": "Blankenburger Stra\u00dfe",
      "place": "Berlin",
      "lat": 52.582,
      "lng": 13.4096,
      "dist": 7,
      "diesel": 1.649,
      "e5": 1.869,
      "e10": 1.809,
      "isOpen": true,
      "houseNumber": "36",
      "postCode": 13156
    },
    {
      "id": "c25b41ba-fb14-4126-9820-67c63956629c",
      "name": "TotalEnergies Berlin",
      "brand": "TotalEnergies",
      "street": "Britzer Damm",
      "place": "Berlin",
      "lat": 52.457048,
      "lng": 13.436356,
      "dist": 7.1,
      "diesel": 1.689,
      "e5": 1.909,
      "e10": 1.849,
      "isOpen": true,
      "houseNumber": "60-62",
      "postCode": 12347
    },
    {
      "id": "990ccdb9-db59-460b-9326-0a532a623f44",
      "name": "Esso Tankstelle",
      "brand": "ESSO",
      "street": "MARTIN-LUTHER-STR. 67",
      "place": "BERLIN",
      "lat": 52.490066,
      "lng": 13.34559,
      "dist": 7.1,
      "diesel": 1.699,
      "e5": 1.889,
      "e10": 1.829,
      "isOpen": true,
      "houseNumber": "",
      "postCode": 10779
    },
    {
      "id": "73f34ee9-64ab-4009-a092-575ce13ce326",
      "name": "TotalEnergies Berlin",
      "brand": "TotalEnergies",
      "street": "Schoeneberger Str",
      "place": "Berlin",
      "lat": 52.470148,
      "lng": 13.371984,
      "dist": 7.2,
      "diesel": 1.699,
      "e5": 1.919,
      "e10": 1.859,
      "isOpen": false,
      "houseNumber": "17",
      "postCode": 12103
    },
    {
      "id": "005056ba-7cb6-1ed5-b4ff-3c304f8bcda6",
      "name": "star Tankstelle",
      "brand": "STAR",
      "street": "Pablo-Picasso-Stra\u00dfe",
      "place": "Berlin",
      "lat": 52.557094,
      "lng": 13.527107,
      "dist": 7.2,
      "diesel": 1.629,
      "e5": 1.849,
      "e10": 1.789,
      "isOpen": true,
      "houseNumber": "50",
      "postCode": 13057
    },
    {
      "id": "de2e2b16-448e-439a-a544-b45c685431ae",
      "name": "TotalEnergies Berlin",
      "brand": "TotalEnergies",
      "street": "Wackenbergstr.",
      "place": "Berlin",
      "lat": 52.582894,
      "lng": 13.404284,
      "dist": 7.3,
      "diesel": 1.679,
      "e5": 1.899,
      "e10": 1.839,
      "isOpen": true,
      "houseNumber": "2",
      "postCode": 13156
    },
    {
      "id": "2020d9be-d9db-456f-9bd1-c72f3ad5d279",
      "name": "Aral Tankstelle",
      "brand": "ARAL",
      "street": "Sch\u00f6neberger Str. \/ Alboi",
      "place": "Berlin",
      "lat": 52.4700241,
      "lng": 13.3710432,
      "dist": 7.3,
      "e5": 1.879,
      "e10": 1.819,
      "isOpen": true,
      "houseNumber": "",
      "postCode": 12103
    },
    {
      "id": "308786e0-9dfd-4f90-b0a3-dd6ab1ce9f97",
      "name": "Aral Tankstelle",
      "brand": "ARAL",
      "street": "Pasewalker Stra\u00dfe",
      "place": "Berlin",
      "lat": 52.58615,
      "lng": 13.4299278,
      "dist": 7.3,
      "diesel": 1.649,
      "e5": 1.879,
      "e10": 1.819,
      "isOpen": true,
      "houseNumber": "110",
      "postCode": 13127
    },
    {
      "id": "7aeee46e-e371-445e-8d07-0184c3369e04",
      "name": "Tankcenter Berlin",
      "brand": "Tankcenter",
      "street": "Bitterfelder Str.",
      "place": "Berlin",
      "lat": 52.556425,
      "lng": 13.528261,
      "dist": 7.3,
      "diesel": 1.629,
      "e5": 1.849,
      "e10": 1.789,
      "isOpen": true,
      "houseNumber": "29",
      "postCode": 12681
    },
    {
      "id": "2397804d-4de1-47bc-b1e8-d135255325f9",
      "name": "Aral Tankstelle",
      "brand": "ARAL",
      "street": "Buschkrugallee",
      "place": "Berlin",
      "lat": 52.45589,
      "lng": 13.4496412,
      "dist": 7.3,
      "diesel": 1.659,
      "e5": 1.889,
      "e10": 1.829,
      "isOpen": true,
      "houseNumber": "84-92",
      "postCode": 12359
    },
    {
      "id": "691e1860-c604-47c6-a568-1626d8478339",
      "name": "Shell Berlin Sachsendamm 90-92",
      "brand": "Shell",
      "street": "Sachsendamm",
      "place": "Berlin",
      "lat": 52.478649,
      "lng": 13.355071,
      "dist": 7.3,
      "diesel": 1.699,
      "e5": 1.879,
      "e10": 1.839,
      "isOpen": true,
      "houseNumber": "90-92",
      "postCode": 10829
    },
    {
      "id": "e1a15081-257b-9107-e040-0b0a3dfe563c",
      "name": "Berlin, Stra\u00dfe vor Sch\u00f6nholz 3",
      "brand": "HEM",
      "street": "Stra\u00dfe vor Sch\u00f6nholz",
      "place": "Berlin",
      "lat": 52.576524,
      "lng": 13.378789,
      "dist": 7.4,
      "diesel": 1.639,
      "e5": 1.859,
      "e10": 1.799,
      "isOpen": true,
      "houseNumber": "3",
      "postCode": 13158
    },
    {
      "id": "b3c8a1cf-a877-4367-87f6-0f4894742501",
      "name": "Aral Tankstelle",
      "brand": "ARAL",
      "street": "Residenzstra\u00dfe",
      "place": "Berlin",
      "lat": 52.5683136,
      "lng": 13.3618641,
      "dist": 7.4,
      "diesel": 1.669,
      "e5": 1.889,
      "e10": 1.829,
      "isOpen": true,
      "houseNumber": "29",
      "postCode": 13409
    },
    {
      "id": "220661c8-e1f3-4308-8a02-85248dd58d76",
      "name": "Aral Tankstelle",
      "brand": "ARAL",
      "street": "K\u00f6penicker Landstr.",
      "place": "Berlin",
      "lat": 52.4647026,
      "lng": 13.4969921,
      "dist": 7.4,
      "diesel": 1.649,
      "e5": 1.869,
      "e10": 1.809,
      "isOpen": true,
      "houseNumber": "294,",
      "postCode": 12437
    },
    {
      "id": "49d45108-e566-470e-aa7e-fd3c6590c683",
      "name": "Shell Berlin Manteuffelstr. 6-7",
      "brand": "Shell",
      "street": "Manteuffelstr.",
      "place": "Berlin",
      "lat": 52.464698,
      "lng": 13.377153,
      "dist": 7.5,
      "diesel": 1.699,
      "e5": 1.919,
      "e10": null,
      "isOpen": true,
      "houseNumber": "6-7",
      "postCode": 12103
    },
    {
      "id": "fcd55ae4-58c8-4fb0-9b60-eec06dd4b746",
      "name": "Aral Tankstelle",
      "brand": "ARAL",
      "street": "Beusselstra\u00dfe",
      "place": "Berlin",
      "lat": 52.5308533,
      "lng": 13.3283939,
      "dist": 7.5,
      "diesel": 1.679,
      "e5": 1.889,
      "e10": 1.829,
      "isOpen": true,
      "houseNumber": "55",
      "postCode": 10553
    },
    {
      "id": "95bfae72-560c-431f-82a1-6cf73a1ef456",
      "name": "TotalEnergies Berlin",
      "brand": "TotalEnergies",
      "street": "Spaethstr.",
      "place": "Berlin",
      "lat": 52.453111,
      "lng": 13.456709,
      "dist": 7.7,
      "diesel": 1.669,
      "e5": 1.889,
      "e10": 1.829,
      "isOpen": true,
      "houseNumber": "158",
      "postCode": 12359
    },
    {
      "id": "29fbf460-4688-457c-b104-e3e52e4fc400",
      "name": "Shell Berlin Kaiserin-Auguste-Allee 9-9 A",
      "brand": "Shell",
      "street": "Kaiserin-Auguste-Allee",
      "place": "Berlin",
      "lat": 52.525562,
      "lng": 13.32434,
      "dist": 7.7,
      "diesel": 1.699,
      "e5": 1.909,
      "e10": 1.849,
      "isOpen": true,
      "houseNumber": "9-9 A",
      "postCode": 10553
    },
    {
      "id": "10b14d7c-fac9-442b-8d80-b57d877d6d24",
      "name": "Shell Berlin Beusselstr. 44",
      "brand": "Shell",
      "street": "Beusselstr.",
      "place": "Berlin",
      "lat": 52.535574,
      "lng": 13.324845,
      "dist": 7.8,
      "diesel": 1.679,
      "e5": 1.879,
      "e10": 1.839,
      "isOpen": true,
      "houseNumber": "44",
      "postCode": 10553
    },
    {
      "id": "e77d4685-53bf-4241-9cbe-2dd8feaea93a",
      "name": "Shell Berlin Tempelhofer Weg 102",
      "brand": "Shell",
      "street": "Tempelhofer Weg",
      "place": "Berlin",
      "lat": 52.450566,
      "lng": 13.43448,
      "dist": 7.8,
      "diesel": 1.689,
      "e5": 1.879,
      "e10": 1.839,
      "isOpen": true,
      "houseNumber": "102",
      "postCode": 12347
    },
    {
      "id": "839b3753-1bd3-4eb8-bc0f-26fe6a33f356",
      "name": "Shell Berlin Bundesallee 200",
      "brand": "Shell",
      "street": "Bundesallee",
      "place": "Berlin",
      "lat": 52.492936,
      "lng": 13.331354,
      "dist": 7.9,
      "diesel": 1.699,
      "e5": 1.869,
      "e10": 1.829,
      "isOpen": true,
      "houseNumber": "200",
      "postCode": 10717
    },
    {
      "id": "f3c0c60e-7709-486b-a7d8-eea21ad0c2d9",
      "name": "SB Berlin Fraunhofer Stra\u00dfe 33-36",
      "brand": "SB",
      "street": "Fraunhofer Stra\u00dfe",
      "place": "Berlin",
      "lat": 52.5144,
      "lng": 13.3219,
      "dist": 7.9,
      "diesel": 1.609,
      "e5": 1.799,
      "e10": 1.739,
      "isOpen": true,
      "houseNumber": "33-36",
      "postCode": 10587
    },
    {
      "id": "09c46b5b-20c0-4dcf-a4d4-e6c67f6d5bb0",
      "name": "Aral Tankstelle",
      "brand": "ARAL",
      "street": "Bismarckstra\u00dfe",
      "place": "Berlin",
      "lat": 52.51281,
      "lng": 13.3197422,
      "dist": 8.1,
      "diesel": 1.679,
      "e5": 1.869,
      "e10": 1.809,
      "isOpen": true,
      "houseNumber": "2",
      "postCode": 10625
    },
    {
      "id": "ef0a079d-8e57-46dc-bef4-37da56cf7c1c",
      "name": "SB-Markttankstelle Berlin Bessemer Str.",
      "brand": "SB-Markttankstelle",
      "street": "Bessemer Str.",
      "place": "Berlin",
      "lat": 52.46275,
      "lng": 13.367119,
      "dist": 8.1,
      "diesel": 1.659,
      "e5": 1.859,
      "e10": 1.799,
      "isOpen": true,
      "houseNumber": "57",
      "postCode": 12103
    },
    {
      "id": "a2579857-ae4f-4a1e-b72d-b456f068a03b",
      "name": "Aral Tankstelle",
      "brand": "ARAL",
      "street": "Schnellerstra\u00dfe",
      "place": "Berlin",
      "lat": 52.45982,
      "lng": 13.5044146,
      "dist": 8.2,
      "diesel": 1.649,
      "e5": 1.869,
      "e10": 1.809,
      "isOpen": true,
      "houseNumber": "20",
      "postCode": 12439
    },
    {
      "id": "b35a4dd6-fb1e-4acc-aed9-9af0bb0c6c3e",
      "name": "Shell Berlin Hauptstr. 91",
      "brand": "Shell",
      "street": "Hauptstr.",
      "place": "Berlin",
      "lat": 52.476001,
      "lng": 13.341226,
      "dist": 8.2,
      "diesel": 1.699,
      "e5": 1.879,
      "e10": 1.839,
      "isOpen": true,
      "houseNumber": "91",
      "postCode": 12159
    },
    {
      "id": "51d4b4ad-a095-1aa0-e100-80009459e03a",
      "name": "JET BERLIN MAERKISCHE ALLEE 246",
      "brand": "JET",
      "street": "MAERKISCHE ALLEE",
      "place": "BERLIN",
      "lat": 52.5519,
      "lng": 13.5499,
      "dist": 8.3,
      "diesel": 1.629,
      "e5": 1.849,
      "e10": 1.789,
      "isOpen": true,
      "houseNumber": "246",
      "postCode": 12679
    },
    {
      "id": "67da24c9-84ef-4505-8e4b-d1c72e9554ce",
      "name": "Sprint Berlin Lietzenburger Str.",
      "brand": "Sprint",
      "street": "Lietzenburger Str.",
      "place": "Berlin",
      "lat": 52.499493,
      "lng": 13.31931,
      "dist": 8.4,
      "diesel": 1.669,
      "e5": 1.859,
      "e10": 1.799,
      "isOpen": true,
      "houseNumber": "97",
      "postCode": 10719
    },
    {
      "id": "2785a39e-faaa-4575-83d9-311e4c70b2b9",
      "name": "Aral Tankstelle",
      "brand": "ARAL",
      "street": "Britzer Damm",
      "place": "Berlin",
      "lat": 52.44537,
      "lng": 13.4334145,
      "dist": 8.4,
      "diesel": 1.719,
      "e5": 1.899,
      "e10": 1.839,
      "isOpen": true,
      "houseNumber": "202-204",
      "postCode": 12347
    },
    {
      "id": "0078a29d-7ef3-4425-9b07-fafa3925af1e",
      "name": "Esso Tankstelle",
      "brand": "ESSO",
      "street": "HOLLAENDERSTR. 52",
      "place": "BERLIN",
      "lat": 52.564594,
      "lng": 13.335623,
      "dist": 8.5,
      "diesel": 1.639,
      "e5": 1.879,
      "e10": 1.819,
      "isOpen": true,
      "houseNumber": "",
      "postCode": 13407
    },
    {
      "id": "0161d940-ebc3-4b74-a513-89322bef9e76",
      "name": "Q1 Tankstelle",
      "brand": "Q1",
      "street": "Mariendorfer Damm",
      "place": "Berlin",
      "lat": 52.4519,
      "lng": 13.385,
      "dist": 8.5,
      "diesel": 1.689,
      "e5": 1.899,
      "e10": 1.839,
      "isOpen": true,
      "houseNumber": "11\/13",
      "postCode": 12109
    },
    {
      "id": "6ab6f8d4-e9f1-4c73-8a20-852b8cd73bc4",
      "name": "Aral Tankstelle",
      "brand": "ARAL",
      "street": "Hauptstra\u00dfe",
      "place": "Berlin",
      "lat": 52.4741135,
      "lng": 13.3388691,
      "dist": 8.5,
      "diesel": 1.619,
      "e5": 1.819,
      "e10": 1.759,
      "isOpen": true,
      "houseNumber": "86",
      "postCode": 12159
    },
    {
      "id": "54407762-2af9-4bd5-9179-f74dcb994f45",
      "name": "Aral Tankstelle",
      "brand": "ARAL",
      "street": "M\u00e4rkische Allee",
      "place": "Berlin",
      "lat": 52.5537338,
      "lng": 13.5515871,
      "dist": 8.5,
      "diesel": 1.639,
      "e5": 1.859,
      "e10": 1.799,
      "isOpen": true,
      "houseNumber": "248",
      "postCode": 12679
    },
    {
      "id": "a83c2eae-4dd5-4cab-8172-d50ca036589a",
      "name": "BERLIN, DIETZGENSTRASSE",
      "brand": "AGIP ENI",
      "street": "Dietzgenstr.",
      "place": "Berlin",
      "lat": 52.594683874958,
      "lng": 13.402918946082,
      "dist": 8.5,
      "diesel": 1.649,
      "e5": 1.869,
      "e10": 1.809,
      "isOpen": true,
      "houseNumber": "127",
      "postCode": 13158
    },
    {
      "id": "005056ba-7cb6-1ed5-acf9-0fb3bfc501a5",
      "name": "star Tankstelle",
      "brand": "STAR",
      "street": "Altentreptower Stra\u00dfe",
      "place": "Berlin",
      "lat": 52.513327,
      "lng": 13.563785,
      "dist": 8.6,
      "diesel": 1.629,
      "e5": 1.849,
      "e10": 1.789,
      "isOpen": true,
      "houseNumber": "2",
      "postCode": 12683
    },
    {
      "id": "f521427a-e115-4664-ad12-f8ae37f5b001",
      "name": "Shell Berlin Karower Damm 35",
      "brand": "Shell",
      "street": "Karower Damm",
      "place": "Berlin",
      "lat": 52.596697,
      "lng": 13.466498,
      "dist": 8.6,
      "diesel": 1.639,
      "e5": 1.849,
      "e10": 1.809,
      "isOpen": true,
      "houseNumber": "35",
      "postCode": 13129
    },
    {
      "id": "3cf8cf3f-5d53-40d5-ab3e-31d3a24f90cd",
      "name": "KP Petrol GmbH",
      "brand": "bft-Tankstelle",
      "street": "Kapweg",
      "place": "Berlin",
      "lat": 52.56175,
      "lng": 13.32875,
      "dist": 8.7,
      "diesel": 1.629,
      "e5": 1.869,
      "e10": 1.809,
      "isOpen": true,
      "houseNumber": "2",
      "postCode": 13405
    },
    {
      "id": "85a9065b-7306-4e39-b818-b240b1f223dd",
      "name": "Aral Tankstelle",
      "brand": "ARAL",
      "street": "Scharnweberstra\u00dfe",
      "place": "Berlin",
      "lat": 52.5633736,
      "lng": 13.3298874,
      "dist": 8.7,
      "diesel": 1.679,
      "e5": 1.879,
      "e10": 1.819,
      "isOpen": true,
      "houseNumber": "12-13",
      "postCode": 13405
    },
    {
      "id": "2d305897-e4a6-4f3f-b925-6d755293d9e7",
      "name": "TotalEnergies Berlin",
      "brand": "TotalEnergies",
      "street": "Arnulfstr.",
      "place": "Berlin",
      "lat": 52.455578,
      "lng": 13.367255,
      "dist": 8.7,
      "diesel": 1.699,
      "e5": 1.919,
      "e10": 1.859,
      "isOpen": true,
      "houseNumber": "98-99",
      "postCode": 12105
    },
    {
      "id": "bd3536ff-83ee-4055-a5e8-0dc891dc2ea6",
      "name": "Esso Tankstelle",
      "brand": "ESSO",
      "street": "MARIENDORFER DAMM 44",
      "place": "BERLIN",
      "lat": 52.448913,
      "lng": 13.384674,
      "dist": 8.8,
      "diesel": 1.699,
      "e5": 1.889,
      "e10": 1.829,
      "isOpen": true,
      "houseNumber": "",
      "postCode": 12109
    },
    {
      "id": "51d4b57e-a095-1aa0-e100-80009459e03a",
      "name": "JET BERLIN ELISABETHSTR. 111",
      "brand": "JET",
      "street": "ELISABETHSTR.",
      "place": "BERLIN",
      "lat": 52.53492,
      "lng": 13.56608,
      "dist": 8.8,
      "diesel": 1.629,
      "e5": 1.849,
      "e10": 1.789,
      "isOpen": true,
      "houseNumber": "111",
      "postCode": 12683
    },
    {
      "id": "51d4b5f0-a095-1aa0-e100-80009459e03a",
      "name": "JET BERLIN KOEPENICKER STRASSE 108",
      "brand": "JET",
      "street": "KOEPENICKER STRASSE",
      "place": "BERLIN",
      "lat": 52.49605,
      "lng": 13.56292,
      "dist": 8.9,
      "diesel": 1.629,
      "e5": 1.849,
      "e10": 1.789,
      "isOpen": true,
      "houseNumber": "108",
      "postCode": 12683
    },
    {
      "id": "68235d5e-60f6-40ed-9e66-b5ea60adc1dd",
      "name": "Shell Berlin Berliner Str. 32",
      "brand": "Shell",
      "street": "Berliner Str.",
      "place": "Berlin",
      "lat": 52.600956,
      "lng": 13.432466,
      "dist": 8.9,
      "diesel": 1.669,
      "e5": 1.869,
      "e10": 1.829,
      "isOpen": true,
      "houseNumber": "32",
      "postCode": 13127
    },
    {
      "id": "51d4b703-a095-1aa0-e100-80009459e03a",
      "name": "JET BERLIN KURT-SCHUMACHER-DAMM 36",
      "brand": "JET",
      "street": "KURT-SCHUMACHER-DAMM",
      "place": "BERLIN",
      "lat": 52.56117,
      "lng": 13.32417,
      "dist": 8.9,
      "diesel": 1.629,
      "e5": 1.869,
      "e10": 1.809,
      "isOpen": true,
      "houseNumber": "36",
      "postCode": 13405
    },
    {
      "id": "d92ca5b1-c981-4e22-b762-e6097075940d",
      "name": "Aral Tankstelle",
      "brand": "ARAL",
      "street": "Blissestra\u00dfe",
      "place": "Berlin",
      "lat": 52.4843254,
      "lng": 13.3206711,
      "dist": 8.9,
      "diesel": 1.689,
      "e5": 1.889,
      "e10": 1.829,
      "isOpen": true,
      "houseNumber": "21",
      "postCode": 10713
    },
    {
      "id": "81f1b85f-4463-48b6-8856-1144622984da",
      "name": "Aral Tankstelle",
      "brand": "ARAL",
      "street": "Roedernallee",
      "place": "Berlin",
      "lat": 52.57913,
      "lng": 13.3463917,
      "dist": 9,
      "diesel": 1.669,
      "e5": 1.899,
      "e10": 1.839,
      "isOpen": true,
      "houseNumber": "179",
      "postCode": 13407
    },
    {
      "id": "1b599ba4-a1b5-4689-b98f-24b11b681e55",
      "name": "Union Zapfstelle Berlin",
      "brand": "Union Zapfstelle",
      "street": "Michael-Br\u00c3\u00bcckner-Str.",
      "place": "Berlin",
      "lat": 52.453798,
      "lng": 13.513042,
      "dist": 9,
      "diesel": 1.629,
      "e5": 1.839,
      "e10": 1.789,
      "isOpen": true,
      "houseNumber": "26-31",
      "postCode": 12439
    },
    {
      "id": "005056ba-7cb6-1ee5-b791-639597361b11",
      "name": "star Tankstelle",
      "brand": "STAR",
      "street": "Otto-Suhr-Allee",
      "place": "Berlin",
      "lat": 52.518904,
      "lng": 13.302904,
      "dist": 9.1,
      "diesel": 1.669,
      "e5": 1.859,
      "e10": 1.799,
      "isOpen": true,
      "houseNumber": "132",
      "postCode": 10585
    },
    {
      "id": "e1a15081-25af-9107-e040-0b0a3dfe563c",
      "name": "Berlin, Saatwinkler Damm 62",
      "brand": "HEM",
      "street": "Saatwinkler Damm",
      "place": "Berlin",
      "lat": 52.547394,
      "lng": 13.309628,
      "dist": 9.2,
      "diesel": 1.669,
      "e5": 1.869,
      "e10": 1.809,
      "isOpen": true,
      "houseNumber": "62",
      "postCode": 13627
    },
    {
      "id": "01f3c507-57b8-4938-9266-4c441f2ffee8",
      "name": "Shell Berlin Ollenhauerstr. 101",
      "brand": "Shell",
      "street": "Ollenhauerstr.",
      "place": "Berlin",
      "lat": 52.571018,
      "lng": 13.329978,
      "dist": 9.2,
      "diesel": 1.699,
      "e5": 1.899,
      "e10": 1.839,
      "isOpen": true,
      "houseNumber": "101",
      "postCode": 13403
    },
    {
      "id": "ce241717-2a15-1ed7-b6f3-400377904e8b",
      "name": "JET BERLIN HAUPTSTR. 70 A",
      "brand": "JET",
      "street": "HAUPTSTR.",
      "place": "BERLIN",
      "lat": 52.60369,
      "lng": 13.43233,
      "dist": 9.2,
      "diesel": 1.639,
      "e5": 1.859,
      "e10": 1.799,
      "isOpen": true,
      "houseNumber": "70 A",
      "postCode": 13127
    },
    {
      "id": "dea1b192-e5ff-4d70-9791-689ef5c65247",
      "name": "Sprint Berlin Gr\u00fcner Weg",
      "brand": "Sprint",
      "street": "Gr\u00fcner Weg",
      "place": "Berlin",
      "lat": 52.438503,
      "lng": 13.452542,
      "dist": 9.2,
      "diesel": 1.659,
      "e5": 1.869,
      "e10": 1.809,
      "isOpen": true,
      "houseNumber": "75",
      "postCode": 12359
    },
    {
      "id": "799ebee7-838a-4f8d-8f9b-2f8b0255107d",
      "name": "TotalEnergies Berlin",
      "brand": "TotalEnergies",
      "street": "Landsberger Allee",
      "place": "Berlin",
      "lat": 52.54486,
      "lng": 13.569022,
      "dist": 9.3,
      "diesel": 1.639,
      "e5": 1.859,
      "e10": 1.799,
      "isOpen": true,
      "houseNumber": "526",
      "postCode": 12681
    },
    {
      "id": "7d5bdc50-efca-428b-90fd-c653ba7f3b66",
      "name": "Aral Tankstelle",
      "brand": "ARAL",
      "street": "Westfaelische Stra\u00dfe",
      "place": "Berlin",
      "lat": 52.49251,
      "lng": 13.3092852,
      "dist": 9.3,
      "diesel": 1.679,
      "e5": 1.869,
      "e10": 1.809,
      "isOpen": true,
      "houseNumber": "9-10",
      "postCode": 10709
    },
    {
      "id": "064554c1-d960-444e-bc1b-0a0449711e44",
      "name": "Shell Berlin Kaiser-Friedrich-Str. 95",
      "brand": "Shell",
      "street": "Kaiser-Friedrich-Str.",
      "place": "Berlin",
      "lat": 52.515933,
      "lng": 13.301201,
      "dist": 9.3,
      "diesel": 1.679,
      "e5": 1.869,
      "e10": 1.809,
      "isOpen": true,
      "houseNumber": "95",
      "postCode": 10585
    },
    {
      "id": "005056ba-7cb6-1ed2-bceb-6d89eb120d20",
      "name": "star Tankstelle",
      "brand": "STAR",
      "street": "Kaiser-Friedrich-Stra\u00dfe",
      "place": "Berlin",
      "lat": 52.517333,
      "lng": 13.300963,
      "dist": 9.3,
      "diesel": 1.669,
      "e5": 1.859,
      "e10": 1.799,
      "isOpen": true,
      "houseNumber": "102",
      "postCode": 10585
    },
    {
      "id": "7d1662e8-1f17-4332-b790-6dacc044a0a3",
      "name": "Aral Tankstelle",
      "brand": "ARAL",
      "street": "Kaiser-Friedrich-Str.",
      "place": "Berlin",
      "lat": 52.50778,
      "lng": 13.3015862,
      "dist": 9.3,
      "diesel": 1.679,
      "e5": 1.889,
      "e10": 1.829,
      "isOpen": true,
      "houseNumber": "45B",
      "postCode": 10627
    },
    {
      "id": "e1a15081-2580-9107-e040-0b0a3dfe563c",
      "name": "Berlin, Attilastr. 124",
      "brand": "HEM",
      "street": "Attilastr.",
      "place": "Berlin",
      "lat": 52.449086,
      "lng": 13.366024,
      "dist": 9.4,
      "diesel": 1.669,
      "e5": 1.879,
      "e10": 1.819,
      "isOpen": true,
      "houseNumber": "124",
      "postCode": 12105
    },
    {
      "id": "32f0afb4-754d-4ed9-af3c-26fc210d306f",
      "name": "Sprint Berlin K\u00f6rnerstr.",
      "brand": "Sprint",
      "street": "K\u00f6rnerstr.",
      "place": "Berlin",
      "lat": 52.46443,
      "lng": 13.334517,
      "dist": 9.4,
      "diesel": 1.669,
      "e5": 1.889,
      "e10": 1.829,
      "isOpen": true,
      "houseNumber": "48 a",
      "postCode": 12157
    },
    {
      "id": "834adf75-8c11-40ab-ac61-7f199cc3b98f",
      "name": "Shell Berlin Hohenzollerndamm 41",
      "brand": "Shell",
      "street": "Hohenzollerndamm",
      "place": "Berlin",
      "lat": 52.488755,
      "lng": 13.306973,
      "dist": 9.6,
      "diesel": 1.719,
      "e5": 1.889,
      "e10": 1.849,
      "isOpen": true,
      "houseNumber": "41",
      "postCode": 10713
    },
    {
      "id": "1c3cf9b2-d3bc-4aac-924a-3afe07bfc6f4",
      "name": "Sprint Berlin Landsberger Allee",
      "brand": "Sprint",
      "street": "Landsberger Allee",
      "place": "Berlin",
      "lat": 52.546337,
      "lng": 13.574123,
      "dist": 9.6,
      "diesel": 1.629,
      "e5": 1.849,
      "e10": 1.789,
      "isOpen": true,
      "houseNumber": "534",
      "postCode": 12681
    },
    {
      "id": "62a8e2c0-abf3-4716-9cd9-d145e112c585",
      "name": "Shell Berlin Rudower Str. 102",
      "brand": "Shell",
      "street": "Rudower Str.",
      "place": "Berlin",
      "lat": 52.435962,
      "lng": 13.465448,
      "dist": 9.6,
      "diesel": 1.689,
      "e5": 1.879,
      "e10": 1.839,
      "isOpen": true,
      "houseNumber": "102",
      "postCode": 12351
    },
    {
      "id": "e75cdbaa-4847-4358-b6f6-dd0aea283bb8",
      "name": "Sprint Berlin Mecklenburgische Str.",
      "brand": "Sprint",
      "street": "Mecklenburgische Str.",
      "place": "Berlin",
      "lat": 52.479774,
      "lng": 13.312765,
      "dist": 9.6,
      "diesel": 1.669,
      "e5": 1.859,
      "e10": 1.799,
      "isOpen": true,
      "houseNumber": "76",
      "postCode": 10713
    },
    {
      "id": "2649945f-a5f3-4eec-b250-8a3833de4e59",
      "name": "Shell Berlin Bergstr. 31\/32",
      "brand": "Shell",
      "street": "Bergstr.",
      "place": "Berlin",
      "lat": 52.458362,
      "lng": 13.33886,
      "dist": 9.7,
      "diesel": 1.699,
      "e5": 1.899,
      "e10": 1.839,
      "isOpen": true,
      "houseNumber": "31\/32",
      "postCode": 12169
    },
    {
      "id": "b836a639-67ae-4265-80e1-07fe48775ed1",
      "name": "BERLIN - GUELZOWER STR. 15A",
      "brand": "AGIP ENI",
      "street": "Guelzower Str.",
      "place": "Berlin",
      "lat": 52.514442026429,
      "lng": 13.581900719961,
      "dist": 9.8,
      "diesel": 1.639,
      "e5": 1.859,
      "e10": 1.799,
      "isOpen": true,
      "houseNumber": "15A",
      "postCode": 12619
    },
    {
      "id": "005056ba-7cb6-1ed2-bceb-6dbab19bed20",
      "name": "star Tankstelle",
      "brand": "STAR",
      "street": "Steglitzer Damm",
      "place": "Berlin",
      "lat": 52.449871,
      "lng": 13.350067,
      "dist": 9.9,
      "diesel": 1.669,
      "e5": 1.889,
      "e10": 1.829,
      "isOpen": true,
      "houseNumber": "77",
      "postCode": 12169
    },
    {
      "id": "335670ce-e425-44f1-b9d5-17e0c1404b12",
      "name": "Esso Tankstelle",
      "brand": "ESSO",
      "street": "CHEMNITZER STR. 179\/181",
      "place": "BERLIN",
      "lat": 52.49016087,
      "lng": 13.5756174,
      "dist": 9.9,
      "diesel": 1.659,
      "e5": 1.879,
      "e10": 1.819,
      "isOpen": true,
      "houseNumber": "",
      "postCode": 12621
    },
    {
      "id": "5f0a857d-a161-40bf-a3a0-28e564951ec2",
      "name": "Bavaria Petrol",
      "brand": "Bavaria Petrol",
      "street": "Heilbronner Stra\u00dfe",
      "place": "Berlin",
      "lat": 52.50183,
      "lng": 13.2943878,
      "dist": 9.9,
      "diesel": 1.669,
      "e5": 1.879,
      "e10": 1.819,
      "isOpen": true,
      "houseNumber": "14-15",
      "postCode": 10711
    },
    {
      "id": "2de1cdfb-7cd5-4c00-846b-1f3d3a668f06",
      "name": "ENI",
      "brand": "AGIP ENI",
      "street": "Dannenwalder Weg",
      "place": "Berlin",
      "lat": 52.591690698103,
      "lng": 13.346440968099,
      "dist": 10,
      "diesel": 1.649,
      "e5": 1.869,
      "e10": 1.809,
      "isOpen": true,
      "houseNumber": "69",
      "postCode": 13439
    },
    {
      "id": "d7cbdead-65f0-44a5-b8c1-15989e230549",
      "name": "Shell Berlin Mariendorfer Damm 170\/172",
      "brand": "Shell",
      "street": "Mariendorfer Damm",
      "place": "Berlin",
      "lat": 52.436144,
      "lng": 13.388401,
      "dist": 10,
      "diesel": 1.709,
      "e5": 1.889,
      "e10": 1.849,
      "isOpen": true,
      "houseNumber": "170\/172",
      "postCode": 12107
    },
    {
      "id": "3df48270-cb19-43ef-8954-fdb96ceb2536",
      "name": "Sprint Berlin Rudower Str.",
      "brand": "Sprint",
      "street": "Rudower Str.",
      "place": "Berlin",
      "lat": 52.433167,
      "lng": 13.471164,
      "dist": 10,
      "diesel": 1.659,
      "e5": 1.869,
      "e10": 1.809,
      "isOpen": true,
      "houseNumber": "150",
      "postCode": 12351
    },
    {
      "id": "005056ba-7cb6-1ed2-bceb-99abbf748d3b",
      "name": "star Tankstelle",
      "brand": "STAR",
      "street": "Johannisthaler Chaussee",
      "place": "Berlin",
      "lat": 52.431854,
      "lng": 13.460731,
      "dist": 10,
      "diesel": 1.649,
      "e5": 1.859,
      "e10": 1.799,
      "isOpen": true,
      "houseNumber": "263-273",
      "postCode": 12351
    },
    {
      "id": "1ca3b827-3d5c-4037-b3ff-d5f6a0e72bb0",
      "name": "Shell Berlin Scharnweberstr. 79\/81",
      "brand": "Shell",
      "street": "Scharnweberstr.",
      "place": "Berlin",
      "lat": 52.567767,
      "lng": 13.309796,
      "dist": 10.1,
      "diesel": 1.699,
      "e5": 1.899,
      "e10": 1.839,
      "isOpen": true,
      "houseNumber": "79\/81",
      "postCode": 13405
    },
    {
      "id": "81f0bcf4-79f6-4c32-9845-8b31129e8885",
      "name": "Aral Tankstelle",
      "brand": "ARAL",
      "street": "Mariendorfer Damm",
      "place": "Berlin",
      "lat": 52.4340363,
      "lng": 13.3905706,
      "dist": 10.2,
      "diesel": 1.719,
      "e5": 1.909,
      "e10": 1.849,
      "isOpen": true,
      "houseNumber": "195",
      "postCode": 12107
    },
    {
      "id": "e1a15081-2596-9107-e040-0b0a3dfe563c",
      "name": "Berlin, Sch\u00f6nerlinder Str. 60-61",
      "brand": "HEM",
      "street": "Sch\u00f6nerlinder Str.",
      "place": "Berlin",
      "lat": 52.613244,
      "lng": 13.433304,
      "dist": 10.3,
      "diesel": 1.639,
      "e5": 1.859,
      "e10": 1.799,
      "isOpen": true,
      "houseNumber": "60-61",
      "postCode": 13127
    },
    {
      "id": "cfee80b5-e9b2-4813-af32-12421dfd29cd",
      "name": "Sb Berlin Alt-Kaulsdorf 45\/49",
      "brand": "SB",
      "street": "Alt-Kaulsdorf",
      "place": "Berlin",
      "lat": 52.505445,
      "lng": 13.587939,
      "dist": 10.3,
      "diesel": 1.569,
      "e5": 1.799,
      "e10": 1.739,
      "isOpen": true,
      "houseNumber": "45\/49",
      "postCode": 12621
    },
    {
      "id": "cd74cb4d-9127-4d6a-8b86-7dbdb44281fd",
      "name": "BERLIN-MARZAHN",
      "brand": "AGIP ENI",
      "street": "Ahrensfelder Chaussee",
      "place": "Berlin-Marzahn",
      "lat": 52.572287871058,
      "lng": 13.564906878666,
      "dist": 10.3,
      "diesel": 1.639,
      "e5": 1.859,
      "e10": 1.799,
      "isOpen": true,
      "houseNumber": "152",
      "postCode": 12689
    },
    {
      "id": "af73e67f-0010-4a8e-93c0-29254f70c1ed",
      "name": "Shell Ahrensfelde Bernauer Str. \/ B2",
      "brand": "Shell",
      "street": "Bernauer Str. \/ B2",
      "place": "Ahrensfelde",
      "lat": 52.601437,
      "lng": 13.514766,
      "dist": 10.3,
      "diesel": 1.659,
      "e5": 1.859,
      "e10": 1.819,
      "isOpen": true,
      "houseNumber": "",
      "postCode": 16356
    },
    {
      "id": "005056ba-7cb6-1ee5-9b87-ce914e3550e4",
      "name": "star Tankstelle",
      "brand": "STAR",
      "street": "Adlergestell",
      "place": "Berlin",
      "lat": 52.445462,
      "lng": 13.527143,
      "dist": 10.3,
      "diesel": 1.629,
      "e5": 1.849,
      "e10": 1.789,
      "isOpen": true,
      "houseNumber": "121",
      "postCode": 12439
    },
    {
      "id": "414b6e59-7913-4d20-b7fe-f77d917e0c77",
      "name": "Shell Berlin Oranienburger Str. 61",
      "brand": "Shell",
      "street": "Oranienburger Str.",
      "place": "Berlin",
      "lat": 52.589884,
      "lng": 13.334643,
      "dist": 10.4,
      "diesel": 1.649,
      "e5": 1.869,
      "e10": 1.809,
      "isOpen": true,
      "houseNumber": "61",
      "postCode": 13437
    },
    {
      "id": "2621d571-e8f3-40c6-881f-b9fd3415ed9e",
      "name": "TotalEnergies Berlin",
      "brand": "TotalEnergies",
      "street": "Eichborndamm",
      "place": "Berlin",
      "lat": 52.576415,
      "lng": 13.314502,
      "dist": 10.4,
      "diesel": 1.679,
      "e5": 1.879,
      "e10": 1.819,
      "isOpen": true,
      "houseNumber": "91",
      "postCode": 13403
    },
    {
      "id": "0dfc9f27-f9fe-40e6-b9ac-48317fba274d",
      "name": "Aral Tankstelle",
      "brand": "ARAL",
      "street": "Suedwestkorso",
      "place": "Berlin",
      "lat": 52.4684372,
      "lng": 13.3112888,
      "dist": 10.4,
      "diesel": 1.699,
      "e5": 1.889,
      "e10": 1.829,
      "isOpen": true,
      "houseNumber": "36A",
      "postCode": 14197
    },
    {
      "id": "43d61d80-bf9f-4dd6-80e5-4cc58702c9fc",
      "name": "Esso Tankstelle",
      "brand": "ESSO",
      "street": "WILHELMSRUHER DAMM 160",
      "place": "BERLIN",
      "lat": 52.59653,
      "lng": 13.346873,
      "dist": 10.4,
      "diesel": 1.609,
      "e5": 1.829,
      "e10": 1.769,
      "isOpen": true,
      "houseNumber": "",
      "postCode": 13435
    },
    {
      "id": "e1a15081-25a2-9107-e040-0b0a3dfe563c",
      "name": "Berlin, Kaulsdorfer Str. 124-126",
      "brand": "HEM",
      "street": "Kaulsdorfer Str.",
      "place": "Berlin",
      "lat": 52.471978,
      "lng": 13.57143,
      "dist": 10.6,
      "diesel": 1.629,
      "e5": 1.849,
      "e10": 1.789,
      "isOpen": true,
      "houseNumber": "124-126",
      "postCode": 12555
    },
    {
      "id": "bf2c17e7-5ce8-4ed4-8c86-d3af09e18ef5",
      "name": "Aral Tankstelle",
      "brand": "ARAL",
      "street": "Kurfuerstendamm",
      "place": "Berlin",
      "lat": 52.4958038,
      "lng": 13.2876053,
      "dist": 10.6,
      "diesel": 1.699,
      "e5": 1.909,
      "e10": 1.849,
      "isOpen": true,
      "houseNumber": "128",
      "postCode": 10711
    },
    {
      "id": "341c9b9a-3e55-4405-8bbe-6f31ef949ea7",
      "name": "Shell Berlin Grossbeerenstr. 82-88",
      "brand": "Shell",
      "street": "Grossbeerenstr.",
      "place": "Berlin",
      "lat": 52.43349,
      "lng": 13.377298,
      "dist": 10.6,
      "diesel": 1.699,
      "e5": 1.919,
      "e10": 1.879,
      "isOpen": true,
      "houseNumber": "82-88",
      "postCode": 12107
    },
    {
      "id": "45f674b4-f27e-4fe8-8b2d-0a94e230418a",
      "name": "Shell Berlin Letterhausweg 2",
      "brand": "Shell",
      "street": "Letterhausweg",
      "place": "Berlin",
      "lat": 52.534381,
      "lng": 13.283034,
      "dist": 10.6,
      "diesel": 1.699,
      "e5": 1.869,
      "e10": 1.829,
      "isOpen": true,
      "houseNumber": "2",
      "postCode": 13627
    },
    {
      "id": "415db6d8-0a8e-4c1a-8dd7-326903e0a0c9",
      "name": "Aral Tankstelle",
      "brand": "ARAL",
      "street": "Neuk\u00f6llner Stra\u00dfe",
      "place": "Berlin",
      "lat": 52.42863,
      "lng": 13.4798374,
      "dist": 10.7,
      "diesel": 1.659,
      "e5": 1.879,
      "e10": 1.819,
      "isOpen": true,
      "houseNumber": "219",
      "postCode": 12357
    },
    {
      "id": "3f994deb-104c-46e0-995b-f6806c3143d9",
      "name": "Aral Tankstelle",
      "brand": "ARAL",
      "street": "Messedamm",
      "place": "Berlin",
      "lat": 52.5096,
      "lng": 13.2813253,
      "dist": 10.7,
      "diesel": 1.679,
      "e5": 1.869,
      "e10": 1.809,
      "isOpen": true,
      "houseNumber": "6",
      "postCode": 14057
    },
    {
      "id": "1c002618-6ca6-4faf-9752-688a83b5e818",
      "name": "Shell Berlin Johannisthaler Chaussee 411",
      "brand": "Shell",
      "street": "Johannisthaler Chaussee",
      "place": "Berlin",
      "lat": 52.42493,
      "lng": 13.442476,
      "dist": 10.7,
      "diesel": 1.679,
      "e5": 1.889,
      "e10": 1.829,
      "isOpen": true,
      "houseNumber": "411",
      "postCode": 12351
    },
    {
      "id": "d5bcbb8b-47a9-4060-9457-b90d2488319c",
      "name": "Aral Tankstelle",
      "brand": "ARAL",
      "street": "Kaiser-Wilhelm-Stra\u00dfe",
      "place": "Berlin",
      "lat": 52.43983,
      "lng": 13.3512516,
      "dist": 10.8,
      "diesel": 1.689,
      "e5": 1.899,
      "e10": 1.839,
      "isOpen": true,
      "houseNumber": "117",
      "postCode": 12247
    },
    {
      "id": "ddc143a0-49b2-40a9-a6de-29c009a6c1c1",
      "name": "Esso Tankstelle",
      "brand": "ESSO",
      "street": "HUBERTUSALLEE 1-3",
      "place": "BERLIN",
      "lat": 52.494197,
      "lng": 13.284873,
      "dist": 10.8,
      "diesel": 1.699,
      "e5": 1.909,
      "e10": 1.849,
      "isOpen": true,
      "houseNumber": "",
      "postCode": 14193
    },
    {
      "id": "da124130-09ff-42fe-b2c9-1146fe002149",
      "name": "Aral Tankstelle",
      "brand": "ARAL",
      "street": "An der Wuhlheide",
      "place": "Berlin",
      "lat": 52.45521,
      "lng": 13.5557737,
      "dist": 10.8,
      "diesel": 1.659,
      "e5": 1.879,
      "e10": 1.819,
      "isOpen": true,
      "houseNumber": "240-242",
      "postCode": 12459
    },
    {
      "id": "40066e8e-fd1c-4ccc-8c47-bee5d1bed07e",
      "name": "Shell Berlin Buckower Damm 225",
      "brand": "Shell",
      "street": "Buckower Damm",
      "place": "Berlin",
      "lat": 52.423594,
      "lng": 13.437216,
      "dist": 10.8,
      "diesel": 1.679,
      "e5": 1.889,
      "e10": 1.829,
      "isOpen": true,
      "houseNumber": "225",
      "postCode": 12349
    },
    {
      "id": "e1a15081-24ca-9107-e040-0b0a3dfe563c",
      "name": "Berlin, Wittestr. 16",
      "brand": "HEM",
      "street": "Wittestr.",
      "place": "Berlin",
      "lat": 52.577588,
      "lng": 13.306636,
      "dist": 10.9,
      "diesel": 1.659,
      "e5": 1.869,
      "e10": 1.809,
      "isOpen": true,
      "houseNumber": "16",
      "postCode": 13509
    },
    {
      "id": "5c5a87c7-bc04-41b4-8b81-733a9ab2db96",
      "name": "Esso Tankstelle",
      "brand": "ESSO",
      "street": "FRITZ-ERLER-ALLEE 154",
      "place": "BERLIN",
      "lat": 52.425434,
      "lng": 13.474281,
      "dist": 10.9,
      "diesel": 1.659,
      "e5": 1.879,
      "e10": 1.819,
      "isOpen": true,
      "houseNumber": "",
      "postCode": 12353
    },
    {
      "id": "98bdb5f5-dff3-4451-a49d-ff444d4678bf",
      "name": "Elan Berlin",
      "brand": "ELAN",
      "street": "Adlergestell",
      "place": "Berlin",
      "lat": 52.441454,
      "lng": 13.533086,
      "dist": 10.9,
      "diesel": 1.629,
      "e5": 1.839,
      "e10": 1.789,
      "isOpen": true,
      "houseNumber": "179",
      "postCode": 12489
    },
    {
      "id": "19adfb9d-003d-4e7c-abd9-351d5ca521b6",
      "name": "Shell Berlin Kaiserdamm 34",
      "brand": "Shell",
      "street": "Kaiserdamm",
      "place": "Berlin",
      "lat": 52.510033,
      "lng": 13.277142,
      "dist": 11,
      "diesel": 1.699,
      "e5": 1.889,
      "e10": 1.829,
      "isOpen": true,
      "houseNumber": "34",
      "postCode": 14057
    },
    {
      "id": "005056a9-779e-1ee9-81a5-0ae97d8d86da",
      "name": "star Tankstelle",
      "brand": "STAR",
      "street": "Mariendorfer Damm",
      "place": "Berlin",
      "lat": 52.425911,
      "lng": 13.394271,
      "dist": 11,
      "diesel": 1.689,
      "e5": 1.879,
      "e10": 1.819,
      "isOpen": true,
      "houseNumber": "306",
      "postCode": 12107
    },
    {
      "id": "fce1aaf2-c981-4710-9243-1939b61a3bb3",
      "name": "Aral Tankstelle",
      "brand": "ARAL",
      "street": "Neukoellner Str.",
      "place": "Berlin",
      "lat": 52.42579,
      "lng": 13.4823542,
      "dist": 11,
      "diesel": 1.659,
      "e5": 1.879,
      "e10": 1.819,
      "isOpen": true,
      "houseNumber": "250-256",
      "postCode": 12357
    },
    {
      "id": "4a725372-f8e1-4144-a017-c47626eaf9a6",
      "name": "Avus",
      "brand": "ARAL",
      "street": "A 115",
      "place": "Berlin",
      "lat": 52.501358,
      "lng": 13.27712,
      "dist": 11.1,
      "diesel": 1.929,
      "e5": 2.179,
      "e10": 2.139,
      "isOpen": true,
      "houseNumber": "",
      "postCode": 14055
    },
    {
      "id": "70c81159-72e1-4063-a485-fc4d95dca0ca",
      "name": "Shell Berlin Spandauer Damm 151",
      "brand": "Shell",
      "street": "Spandauer Damm",
      "place": "Berlin",
      "lat": 52.519184,
      "lng": 13.272248,
      "dist": 11.2,
      "diesel": 1.699,
      "e5": 1.889,
      "e10": 1.829,
      "isOpen": true,
      "houseNumber": "151",
      "postCode": 14050
    },
    {
      "id": "10ba80a5-b028-497c-b94e-8e247e487a12",
      "name": "Sun Wittenau",
      "brand": "SUN",
      "street": "Oranienburger Strasse",
      "place": "Berlin",
      "lat": 52.598719,
      "lng": 13.331994,
      "dist": 11.2,
      "diesel": 1.579,
      "e5": 1.799,
      "e10": 1.739,
      "isOpen": true,
      "houseNumber": "181",
      "postCode": 13437
    },
    {
      "id": "d3b61144-df3a-44fd-8e66-2ce0ebd4e796",
      "name": "Aral Tankstelle",
      "brand": "ARAL",
      "street": "Schlossstra\u00dfe",
      "place": "Berlin",
      "lat": 52.45308,
      "lng": 13.3150759,
      "dist": 11.2,
      "diesel": 1.699,
      "e5": 1.929,
      "e10": 1.869,
      "isOpen": true,
      "houseNumber": "63-64",
      "postCode": 12165
    },
    {
      "id": "350787b5-2802-4fd1-979b-192e0e413772",
      "name": "Aral Tankstelle",
      "brand": "ARAL",
      "street": "Mariendorfer Damm",
      "place": "Berlin",
      "lat": 52.4230461,
      "lng": 13.3967419,
      "dist": 11.2,
      "diesel": 1.699,
      "e5": 1.889,
      "e10": 1.829,
      "isOpen": true,
      "houseNumber": "341",
      "postCode": 12107
    },
    {
      "id": "52293830-5847-06d0-e100-80009459e02c",
      "name": "JET BERLIN HOLZHAUSER STRASSE 34",
      "brand": "JET",
      "street": "HOLZHAUSER STRASSE",
      "place": "BERLIN",
      "lat": 52.57837,
      "lng": 13.2992,
      "dist": 11.3,
      "diesel": 1.659,
      "e5": 1.869,
      "e10": 1.809,
      "isOpen": true,
      "houseNumber": "34",
      "postCode": 13509
    },
    {
      "id": "ac011d66-ff3d-4b76-b079-b6622d8e6aa5",
      "name": "Shell Berlin Lindenstr. 21",
      "brand": "Shell",
      "street": "Lindenstr.",
      "place": "Berlin",
      "lat": 52.455202,
      "lng": 13.567291,
      "dist": 11.4,
      "diesel": 1.639,
      "e5": 1.839,
      "e10": 1.799,
      "isOpen": true,
      "houseNumber": "21",
      "postCode": 12555
    },
    {
      "id": "a60371c7-0cd1-4ca0-83f7-c63835ef3a8c",
      "name": "Kaufland Tankstelle Eiche",
      "brand": "Kaufland",
      "street": "Landsberger Chaussee",
      "place": "Ahrensfelde",
      "lat": 52.547984,
      "lng": 13.600753,
      "dist": 11.4,
      "diesel": 1.559,
      "e5": 1.779,
      "e10": 1.739,
      "isOpen": true,
      "houseNumber": "17",
      "postCode": 16356
    },
    {
      "id": "f1ceff8c-1b5a-4768-acf5-d7b843715929",
      "name": "Aral Tankstelle",
      "brand": "ARAL",
      "street": "Spenglerstr.",
      "place": "Ahrensfelde",
      "lat": 52.60811,
      "lng": 13.52888,
      "dist": 11.5,
      "diesel": 1.649,
      "e5": 1.869,
      "e10": 1.809,
      "isOpen": true,
      "houseNumber": "2",
      "postCode": 16356
    },
    {
      "id": "8484cd59-8550-4970-a71f-a695f7971095",
      "name": "TotalEnergies Berlin",
      "brand": "TotalEnergies",
      "street": "Neukoellner Str.",
      "place": "Berlin",
      "lat": 52.4222,
      "lng": 13.487083,
      "dist": 11.5,
      "diesel": 1.689,
      "e5": 1.899,
      "e10": 1.839,
      "isOpen": true,
      "houseNumber": "294",
      "postCode": 12357
    },
    {
      "id": "2c21b856-4850-0952-e100-00000630df04",
      "name": "ENI",
      "brand": "AGIP ENI",
      "street": "Bel\u00dfstr.",
      "place": "Berlin",
      "lat": 52.427305,
      "lng": 13.365091,
      "dist": 11.5,
      "diesel": 1.679,
      "e5": 1.889,
      "e10": 1.829,
      "isOpen": true,
      "houseNumber": "51",
      "postCode": 12249
    },
    {
      "id": "49a9d3c7-88e5-4f73-814c-dcfb3c7ec35a",
      "name": "Shell Berlin Stendaler Str. 176",
      "brand": "Shell",
      "street": "Stendaler Str.",
      "place": "Berlin",
      "lat": 52.5454,
      "lng": 13.603985,
      "dist": 11.6,
      "diesel": 1.639,
      "e5": 1.839,
      "e10": 1.799,
      "isOpen": true,
      "houseNumber": "176",
      "postCode": 12627
    },
    {
      "id": "c55ab696-94d3-4dee-b728-afde19032c78",
      "name": "Aral Tankstelle",
      "brand": "ARAL",
      "street": "Reichsstra\u00dfe",
      "place": "Berlin",
      "lat": 52.5136452,
      "lng": 13.266036,
      "dist": 11.7,
      "diesel": 1.699,
      "e5": 1.899,
      "e10": 1.839,
      "isOpen": true,
      "houseNumber": "13\/14",
      "postCode": 14052
    },
    {
      "id": "a68f5a66-9816-4716-ae24-91a541c18188",
      "name": "TotalEnergies Ahrensfelde",
      "brand": "TotalEnergies",
      "street": "Dorfstr.",
      "place": "Ahrensfelde",
      "lat": 52.577505,
      "lng": 13.584722,
      "dist": 11.7,
      "diesel": 1.639,
      "e5": 1.859,
      "e10": 1.799,
      "isOpen": true,
      "houseNumber": "37A",
      "postCode": 16356
    },
    {
      "id": "0ed76157-da31-43fc-bf59-fddc04cd4a86",
      "name": "Sprint Eiche Landsberger Chaussee",
      "brand": "Sprint",
      "street": "Landsberger Chaussee",
      "place": "Eiche",
      "lat": 52.54651,
      "lng": 13.607266,
      "dist": 11.8,
      "diesel": 1.629,
      "e5": 1.849,
      "e10": 1.789,
      "isOpen": true,
      "houseNumber": "21",
      "postCode": 16356
    },
    {
      "id": "005056ba-7cb6-1ed2-bceb-6e844f9e6d20",
      "name": "star Tankstelle",
      "brand": "STAR",
      "street": "K\u00f6nigin-Luise-Stra\u00dfe",
      "place": "Berlin",
      "lat": 52.45751,
      "lng": 13.297791,
      "dist": 11.8,
      "diesel": 1.679,
      "e5": 1.889,
      "e10": 1.829,
      "isOpen": true,
      "houseNumber": "22a",
      "postCode": 14195
    },
    {
      "id": "76c149d3-c19c-411d-9929-999ca73edece",
      "name": "TotalEnergies Berlin",
      "brand": "TotalEnergies",
      "street": "Oberspreestr.",
      "place": "Berlin",
      "lat": 52.4458,
      "lng": 13.56179,
      "dist": 11.8,
      "diesel": 1.659,
      "e5": 1.879,
      "e10": 1.819,
      "isOpen": true,
      "houseNumber": "138",
      "postCode": 12555
    },
    {
      "id": "005056ba-7cb6-1ed5-afd3-7ff1263fc642",
      "name": "star Tankstelle",
      "brand": "STAR",
      "street": "Alt-Mahlsdorf",
      "place": "Berlin",
      "lat": 52.504617,
      "lng": 13.611061,
      "dist": 11.9,
      "diesel": 1.629,
      "e5": 1.849,
      "e10": 1.789,
      "isOpen": true,
      "houseNumber": "117",
      "postCode": 12623
    },
    {
      "id": "4cda8f83-88e0-47c0-9a38-616f0504d76c",
      "name": "Aral Tankstelle",
      "brand": "ARAL",
      "street": "Hohenzollerndamm",
      "place": "Berlin",
      "lat": 52.4758873,
      "lng": 13.2791624,
      "dist": 11.9,
      "diesel": 1.699,
      "e5": 1.909,
      "e10": 1.849,
      "isOpen": true,
      "houseNumber": "97",
      "postCode": 14199
    },
    {
      "id": "ec18e7d5-8776-49a3-a445-8eac7d2a7f66",
      "name": "Shell Berlin Hultschiner Damm 129\/131",
      "brand": "Shell",
      "street": "Hultschiner Damm",
      "place": "Berlin",
      "lat": 52.486536,
      "lng": 13.604069,
      "dist": 11.9,
      "diesel": 1.659,
      "e5": 1.879,
      "e10": 1.819,
      "isOpen": true,
      "houseNumber": "129\/131",
      "postCode": 12623
    },
    {
      "id": "59d037f4-80f7-4ff1-8a77-6c690585f659",
      "name": "Access Berlin",
      "brand": "Access",
      "street": "Reichsstr.",
      "place": "Berlin",
      "lat": 52.514909,
      "lng": 13.262436,
      "dist": 11.9,
      "diesel": 1.669,
      "e5": 1.849,
      "e10": 1.799,
      "isOpen": true,
      "houseNumber": "86",
      "postCode": 14052
    },
    {
      "id": "86c5d496-140d-4920-a085-721f4b9697fb",
      "name": "Esso Tankstelle",
      "brand": "ESSO",
      "street": "KAISER-WILHELM-STR. 34",
      "place": "BERLIN",
      "lat": 52.432253,
      "lng": 13.33814,
      "dist": 12,
      "diesel": 1.689,
      "e5": 1.889,
      "e10": 1.829,
      "isOpen": true,
      "houseNumber": "",
      "postCode": 12247
    },
    {
      "id": "ce8685d4-7249-477e-8bb3-04eb69e6bb44",
      "name": "Aral Tankstelle",
      "brand": "ARAL",
      "street": "Berliner Stra\u00dfe",
      "place": "Berlin",
      "lat": 52.5813866,
      "lng": 13.2913771,
      "dist": 12,
      "diesel": 1.669,
      "e5": 1.899,
      "e10": 1.839,
      "isOpen": true,
      "houseNumber": "67",
      "postCode": 13507
    },
    {
      "id": "8a7a3916-0deb-46ba-bef9-4531c0cb1c7c",
      "name": "TotalEnergies Berlin",
      "brand": "TotalEnergies",
      "street": "Heerstr.",
      "place": "Berlin",
      "lat": 52.508358,
      "lng": 13.260575,
      "dist": 12.1,
      "diesel": 1.699,
      "e5": 1.919,
      "e10": 1.859,
      "isOpen": true,
      "houseNumber": "35-37",
      "postCode": 14055
    },
    {
      "id": "38313b7f-d78d-4d61-9c57-dfd5765f7952",
      "name": "Esso Tankstelle",
      "brand": "ESSO",
      "street": "MARIENFELDER CHAUSSEE 171",
      "place": "BERLIN",
      "lat": 52.414372,
      "lng": 13.402286,
      "dist": 12.1,
      "diesel": 1.689,
      "e5": 1.889,
      "e10": 1.829,
      "isOpen": true,
      "houseNumber": "",
      "postCode": 12349
    },
    {
      "id": "06b35678-0789-43b9-996f-2d3210d04d64",
      "name": "Aral Tankstelle",
      "brand": "ARAL",
      "street": "McDonalds-Stra\u00dfe",
      "place": "Blumberg",
      "lat": 52.5824242,
      "lng": 13.587225,
      "dist": 12.2,
      "diesel": 1.659,
      "e5": 1.879,
      "e10": 1.819,
      "isOpen": true,
      "houseNumber": "1",
      "postCode": 16356
    },
    {
      "id": "4a77f092-7ee2-417b-ba14-266b54230092",
      "name": "SPREVES",
      "brand": "",
      "street": "Friedrichshagener Str.",
      "place": "Berlin",
      "lat": 52.45243,
      "lng": 13.57849,
      "dist": 12.2,
      "diesel": 1.629,
      "e5": 1.849,
      "e10": 1.799,
      "isOpen": true,
      "houseNumber": "4",
      "postCode": 12555
    },
    {
      "id": "e1a15081-255a-9107-e040-0b0a3dfe563c",
      "name": "Berlin, Alt-Mahlsdorf 40",
      "brand": "HEM",
      "street": "Alt-Mahlsdorf",
      "place": "Berlin",
      "lat": 52.505146,
      "lng": 13.616803,
      "dist": 12.2,
      "diesel": 1.629,
      "e5": 1.849,
      "e10": 1.789,
      "isOpen": true,
      "houseNumber": "40",
      "postCode": 12623
    },
    {
      "id": "e1a15081-24cb-9107-e040-0b0a3dfe563c",
      "name": "Berlin, Zabel-Kr\u00fcger-Damm 20",
      "brand": "HEM",
      "street": "Zabel-Kr\u00fcger-Damm",
      "place": "Berlin",
      "lat": 52.608667,
      "lng": 13.327813,
      "dist": 12.3,
      "diesel": 1.579,
      "e5": 1.799,
      "e10": 1.739,
      "isOpen": true,
      "houseNumber": "20",
      "postCode": 13469
    },
    {
      "id": "32067176-94df-4b22-b314-d8696b41a809",
      "name": "ENI",
      "brand": "AGIP ENI",
      "street": "Adlergestell",
      "place": "Berlin",
      "lat": 52.431973788044,
      "lng": 13.546518992104,
      "dist": 12.3,
      "diesel": 1.639,
      "e5": 1.859,
      "e10": 1.799,
      "isOpen": true,
      "houseNumber": "289 A",
      "postCode": 12489
    },
    {
      "id": "7c6a13f6-12a8-4619-a7ab-2c3c9dbab28b",
      "name": "Aral Tankstelle",
      "brand": "ARAL",
      "street": "Berliner Stra\u00dfe",
      "place": "Berlin",
      "lat": 52.5843735,
      "lng": 13.2877436,
      "dist": 12.4,
      "diesel": 1.669,
      "e5": 1.899,
      "e10": 1.839,
      "isOpen": true,
      "houseNumber": "24",
      "postCode": 13507
    },
    {
      "id": "bef65b2c-2a7b-4c54-aa4d-c874fc49f3b9",
      "name": "AHRENSFELDE - BLUMBERGER CHAUSSEE 1",
      "brand": "AGIP ENI",
      "street": "Blumberger Chaussee 1",
      "place": "Ahrensfelde",
      "lat": 52.584158057649,
      "lng": 13.588933445249,
      "dist": 12.4,
      "diesel": 1.639,
      "e5": 1.859,
      "e10": 1.799,
      "isOpen": true,
      "houseNumber": "",
      "postCode": 16356
    },
    {
      "id": "70b97795-49e1-4713-aa94-7fa0bd93070c",
      "name": "BERLIN-HELLERSDORF - ALT MAHLSDORF",
      "brand": "AGIP ENI",
      "street": "Alt Mahlsdorf",
      "place": "Berlin-Hellersdorf",
      "lat": 52.504147905822,
      "lng": 13.619813276838,
      "dist": 12.4,
      "diesel": 1.639,
      "e5": 1.859,
      "e10": 1.799,
      "isOpen": true,
      "houseNumber": "94",
      "postCode": 12623
    },
    {
      "id": "e1a15081-24cc-9107-e040-0b0a3dfe563c",
      "name": "Berlin, Adlergestell 305",
      "brand": "HEM",
      "street": "Adlergestell",
      "place": "Berlin",
      "lat": 52.430569,
      "lng": 13.549101,
      "dist": 12.6,
      "diesel": 1.629,
      "e5": 1.849,
      "e10": 1.789,
      "isOpen": true,
      "houseNumber": "305",
      "postCode": 12489
    },
    {
      "id": "51d4b4d4-a095-1aa0-e100-80009459e03a",
      "name": "JET BERLIN BUCKOWER CHAUSSEE 36-42",
      "brand": "JET",
      "street": "BUCKOWER CHAUSSEE",
      "place": "BERLIN",
      "lat": 52.41218,
      "lng": 13.3877,
      "dist": 12.6,
      "diesel": 1.669,
      "e5": 1.879,
      "e10": 1.819,
      "isOpen": true,
      "houseNumber": "36-42",
      "postCode": 12277
    },
    {
      "id": "51d4b590-a095-1aa0-e100-80009459e03a",
      "name": "JET BERLIN GLIENICKER WEG 105",
      "brand": "JET",
      "street": "GLIENICKER WEG",
      "place": "BERLIN",
      "lat": 52.43497,
      "lng": 13.55938,
      "dist": 12.6,
      "diesel": 1.629,
      "e5": 1.849,
      "e10": 1.789,
      "isOpen": true,
      "houseNumber": "105",
      "postCode": 12489
    },
    {
      "id": "e1a15081-24cd-9107-e040-0b0a3dfe563c",
      "name": "Berlin, Riesaer Str. 121",
      "brand": "HEM",
      "street": "Riesaer Str.",
      "place": "Berlin",
      "lat": 52.53023,
      "lng": 13.62457,
      "dist": 12.7,
      "diesel": 1.629,
      "e5": 1.849,
      "e10": 1.789,
      "isOpen": true,
      "houseNumber": "121",
      "postCode": 12627
    },
    {
      "id": "3615a7ea-35d6-4d4f-a790-b8c4a1027b8e",
      "name": "CleanCar AG NL 127",
      "brand": "",
      "street": "Glienicker Weg",
      "place": "Berlin",
      "lat": 52.4306897,
      "lng": 13.5525213,
      "dist": 12.7,
      "diesel": 1.629,
      "e5": 1.849,
      "e10": 1.789,
      "isOpen": true,
      "houseNumber": "182",
      "postCode": 12489
    },
    {
      "id": "005056ba-7cb6-1ed5-a7ce-94793a301eaf",
      "name": "star Tankstelle",
      "brand": "STAR",
      "street": "Waidmannsluster Damm",
      "place": "Berlin",
      "lat": 52.598174,
      "lng": 13.298843,
      "dist": 12.7,
      "diesel": 1.639,
      "e5": 1.859,
      "e10": 1.799,
      "isOpen": true,
      "houseNumber": "54",
      "postCode": 13509
    },
    {
      "id": "852f0efc-cf31-4151-939b-6553f66302b5",
      "name": "TotalEnergies Berlin",
      "brand": "TotalEnergies",
      "street": "Alt Mahlsdorf",
      "place": "Berlin",
      "lat": 52.504209,
      "lng": 13.624332,
      "dist": 12.7,
      "diesel": 1.639,
      "e5": 1.859,
      "e10": 1.799,
      "isOpen": true,
      "houseNumber": "60",
      "postCode": 12623
    },
    {
      "id": "51d4b6ff-a095-1aa0-e100-80009459e03a",
      "name": "JET BERLIN BELLEVUESTR. 14",
      "brand": "JET",
      "street": "BELLEVUESTR.",
      "place": "BERLIN",
      "lat": 52.45434,
      "lng": 13.59227,
      "dist": 12.8,
      "diesel": 1.629,
      "e5": 1.829,
      "e10": 1.769,
      "isOpen": true,
      "houseNumber": "14",
      "postCode": 12555
    },
    {
      "id": "40a5a76a-b60f-49eb-8930-38308772afec",
      "name": "Shell Berlin Koenigsberger Str. 8",
      "brand": "Shell",
      "street": "Koenigsberger Str.",
      "place": "Berlin",
      "lat": 52.429599,
      "lng": 13.322023,
      "dist": 12.8,
      "diesel": 1.699,
      "e5": 1.889,
      "e10": 1.849,
      "isOpen": true,
      "houseNumber": "8",
      "postCode": 12207
    },
    {
      "id": "005056ba-7cb6-1ed2-bceb-9d9e89b4cd3c",
      "name": "star Tankstelle",
      "brand": "STAR",
      "street": "Oraniendamm",
      "place": "Berlin",
      "lat": 52.6111,
      "lng": 13.318869,
      "dist": 12.9,
      "diesel": 1.639,
      "e5": 1.859,
      "e10": 1.799,
      "isOpen": true,
      "houseNumber": "28",
      "postCode": 13469
    },
    {
      "id": "1b25d42b-65e8-4724-a801-6a921b273aa7",
      "name": "Aral Tankstelle",
      "brand": "ARAL",
      "street": "Drakestra\u00dfe",
      "place": "Berlin",
      "lat": 52.44085,
      "lng": 13.2994308,
      "dist": 12.9,
      "diesel": 1.679,
      "e5": 1.879,
      "e10": 1.819,
      "isOpen": true,
      "houseNumber": "26a",
      "postCode": 12205
    },
    {
      "id": "01abf2e9-84e2-4328-936f-9958c7c733a8",
      "name": "Esso Tankstelle",
      "brand": "ESSO",
      "street": "UNTER DEN EICHEN 67-69",
      "place": "BERLIN",
      "lat": 52.445174,
      "lng": 13.291825,
      "dist": 13,
      "diesel": 1.679,
      "e5": 1.909,
      "e10": 1.849,
      "isOpen": true,
      "houseNumber": "",
      "postCode": 12203
    },
    {
      "id": "32059cff-d7cc-4375-8c54-2f2ffcb3ebfa",
      "name": "Sprint Berlin Otternbuchtstr.",
      "brand": "Sprint",
      "street": "Otternbuchtstr.",
      "place": "Berlin",
      "lat": 52.5375,
      "lng": 13.24748,
      "dist": 13,
      "diesel": 1.669,
      "e5": 1.859,
      "e10": 1.799,
      "isOpen": true,
      "houseNumber": "37",
      "postCode": 13599
    },
    {
      "id": "f70435b5-76bd-480c-bade-34cede6dbc88",
      "name": "Shell Hoenow Mahlsdorfer Str 18",
      "brand": "Shell",
      "street": "Mahlsdorfer Str",
      "place": "Hoenow",
      "lat": 52.532861,
      "lng": 13.63007,
      "dist": 13.1,
      "diesel": 1.659,
      "e5": 1.879,
      "e10": 1.819,
      "isOpen": true,
      "houseNumber": "18",
      "postCode": 15366
    },
    {
      "id": "e1a15081-2534-9107-e040-0b0a3dfe563c",
      "name": "Panketal, Dorfstr. 1a",
      "brand": "HEM",
      "street": "Dorfstr.",
      "place": "Panketal",
      "lat": 52.620937,
      "lng": 13.542302,
      "dist": 13.2,
      "diesel": 1.639,
      "e5": 1.859,
      "e10": 1.799,
      "isOpen": true,
      "houseNumber": "1a",
      "postCode": 16341
    },
    {
      "id": "005056ba-7cb6-1ed2-bceb-aba199748d43",
      "name": "star Tankstelle",
      "brand": "STAR",
      "street": "Hildburghauser Stra\u00dfe",
      "place": "Berlin",
      "lat": 52.412786,
      "lng": 13.359043,
      "dist": 13.2,
      "diesel": 1.669,
      "e5": 1.879,
      "e10": 1.819,
      "isOpen": true,
      "houseNumber": "7",
      "postCode": 12279
    },
    {
      "id": "005056ba-7cb6-1ed2-bceb-6e381992cd20",
      "name": "star Tankstelle",
      "brand": "STAR",
      "street": "K\u00f6nigsberger Stra\u00dfe",
      "place": "Berlin",
      "lat": 52.430139,
      "lng": 13.312692,
      "dist": 13.2,
      "diesel": 1.669,
      "e5": 1.889,
      "e10": 1.829,
      "isOpen": true,
      "houseNumber": "25a",
      "postCode": 12207
    },
    {
      "id": "e1a15081-255b-9107-e040-0b0a3dfe563c",
      "name": "Berlin, Berliner Str. 140",
      "brand": "HEM",
      "street": "Berliner Str.",
      "place": "Berlin",
      "lat": 52.613348,
      "lng": 13.315172,
      "dist": 13.2,
      "diesel": 1.579,
      "e5": 1.799,
      "e10": 1.739,
      "isOpen": true,
      "houseNumber": "140",
      "postCode": 13467
    },
    {
      "id": "9a0eb832-f276-47cb-92ed-5aa588da780e",
      "name": "Sprint Berlin Barnackufer",
      "brand": "Sprint",
      "street": "Barnackufer",
      "place": "Berlin",
      "lat": 52.42992,
      "lng": 13.312081,
      "dist": 13.2,
      "diesel": 1.679,
      "e5": 1.889,
      "e10": 1.829,
      "isOpen": true,
      "houseNumber": "25",
      "postCode": 12207
    },
    {
      "id": "53ace41c-0bc3-4e44-8c8e-f3e8f0b0f073",
      "name": "Sprint Berlin Hildburghauser Str.",
      "brand": "Sprint",
      "street": "Hildburghauser Str.",
      "place": "Berlin",
      "lat": 52.41315,
      "lng": 13.355078,
      "dist": 13.2,
      "diesel": 1.669,
      "e5": 1.879,
      "e10": 1.819,
      "isOpen": true,
      "houseNumber": "27 a",
      "postCode": 12279
    },
    {
      "id": "2dfc81ca-f872-4527-be2e-fc127cbbd123",
      "name": "Aral Tankstelle",
      "brand": "ARAL",
      "street": "Gartenfelder Stra\u00dfe",
      "place": "Berlin",
      "lat": 52.5435677,
      "lng": 13.2432652,
      "dist": 13.4,
      "diesel": 1.699,
      "e5": 1.889,
      "e10": 1.829,
      "isOpen": true,
      "houseNumber": "71",
      "postCode": 13599
    },
    {
      "id": "792992bc-59d7-4b3e-9cbb-db69af60717f",
      "name": "Greenline Dahlwitz-Hoppegarten",
      "brand": "Greenline",
      "street": "Gewerbestr.",
      "place": "Dahlwitz-Hoppegarten",
      "lat": 52.5103,
      "lng": 13.6375,
      "dist": 13.6,
      "diesel": 1.628,
      "e5": null,
      "e10": null,
      "isOpen": true,
      "houseNumber": "",
      "postCode": 15366
    },
    {
      "id": "e1a15081-24c9-9107-e040-0b0a3dfe563c",
      "name": "Berlin, Lichterfelder Ring 96",
      "brand": "HEM",
      "street": "Lichterfelder Ring",
      "place": "Berlin",
      "lat": 52.412346,
      "lng": 13.347266,
      "dist": 13.6,
      "diesel": 1.699,
      "e5": 1.879,
      "e10": 1.819,
      "isOpen": true,
      "houseNumber": "96",
      "postCode": 12279
    },
    {
      "id": "005056ba-7cb6-1ed5-a685-79a3266e48f2",
      "name": "star Tankstelle",
      "brand": "STAR",
      "street": "Adlergestell",
      "place": "Berlin",
      "lat": 52.423702,
      "lng": 13.55947,
      "dist": 13.6,
      "diesel": 1.629,
      "e5": 1.849,
      "e10": 1.789,
      "isOpen": true,
      "houseNumber": "391",
      "postCode": 12527
    },
    {
      "id": "51d4b5dc-a095-1aa0-e100-80009459e03a",
      "name": "JET BERLIN CHARLOTTENBURGER CH. 47",
      "brand": "JET",
      "street": "CHARLOTTENBURGER CH.",
      "place": "BERLIN",
      "lat": 52.5271,
      "lng": 13.23407,
      "dist": 13.8,
      "diesel": 1.669,
      "e5": 1.839,
      "e10": 1.779,
      "isOpen": true,
      "houseNumber": "47",
      "postCode": 13597
    },
    {
      "id": "43b2c5ef-a0ad-4604-85d9-13c1b0b326c7",
      "name": "TotalEnergies Berlin",
      "brand": "TotalEnergies",
      "street": "Hildburghauser Str.",
      "place": "Berlin",
      "lat": 52.419154,
      "lng": 13.319371,
      "dist": 13.9,
      "diesel": 1.699,
      "e5": 1.939,
      "e10": 1.879,
      "isOpen": true,
      "houseNumber": "222",
      "postCode": 12209
    },
    {
      "id": "bbbd8a3d-5e93-4ba3-6592-489aa2e6aa14",
      "name": "Clean Car AG NL116",
      "brand": "",
      "street": "Charlottenburger Chaussee",
      "place": "Berlin",
      "lat": 52.5274511,
      "lng": 13.2327632,
      "dist": 13.9,
      "diesel": 1.669,
      "e5": 1.859,
      "e10": 1.799,
      "isOpen": true,
      "houseNumber": "51 - 55",
      "postCode": 13597
    },
    {
      "id": "45936520-e830-4578-a3cb-188053b90765",
      "name": "Shell Berlin Hermsdorfer Damm 141-143",
      "brand": "Shell",
      "street": "Hermsdorfer Damm",
      "place": "Berlin",
      "lat": 52.616078,
      "lng": 13.300634,
      "dist": 14.1,
      "diesel": 1.619,
      "e5": 1.879,
      "e10": 1.839,
      "isOpen": true,
      "houseNumber": "141-143",
      "postCode": 13467
    },
    {
      "id": "a2f96cc4-b858-463d-bd93-b3056e81fcaa",
      "name": "Esso Tankstelle",
      "brand": "ESSO",
      "street": "HERMSDORFER DAMM 221",
      "place": "BERLIN",
      "lat": 52.622566,
      "lng": 13.312269,
      "dist": 14.1,
      "diesel": 1.669,
      "e5": 1.889,
      "e10": 1.829,
      "isOpen": true,
      "houseNumber": "",
      "postCode": 13467
    },
    {
      "id": "eec777c6-0c58-4e20-a37e-e4eb1a342982",
      "name": "Elan Berlin",
      "brand": "ELAN",
      "street": "Fuerstenwalder Damm",
      "place": "Berlin",
      "lat": 52.45479,
      "lng": 13.616859,
      "dist": 14.2,
      "diesel": 1.629,
      "e5": 1.849,
      "e10": 1.789,
      "isOpen": true,
      "houseNumber": "418",
      "postCode": 12587
    },
    {
      "id": "24cd8191-2e79-47ec-bd9a-99721a871daa",
      "name": "SPREVES",
      "brand": "",
      "street": "Hermsdorfer Damm",
      "place": "Berlin",
      "lat": 52.6193727,
      "lng": 13.304075,
      "dist": 14.2,
      "diesel": 1.609,
      "e5": 1.869,
      "e10": 1.819,
      "isOpen": true,
      "houseNumber": "180",
      "postCode": 13467
    },
    {
      "id": "005056ba-7cb6-1ed2-bceb-6d1d63fd4d20",
      "name": "star Tankstelle",
      "brand": "STAR",
      "street": "Finckensteinallee",
      "place": "Berlin",
      "lat": 52.432513,
      "lng": 13.286745,
      "dist": 14.2,
      "diesel": 1.669,
      "e5": 1.889,
      "e10": 1.829,
      "isOpen": true,
      "houseNumber": "133",
      "postCode": 12205
    },
    {
      "id": "e4b2aa05-221a-4e5a-ba75-5f6673b75741",
      "name": "Shell Berlin Wendenschlossstr. 292",
      "brand": "Shell",
      "street": "Wendenschlossstr.",
      "place": "Berlin",
      "lat": 52.429248,
      "lng": 13.584005,
      "dist": 14.2,
      "diesel": 1.659,
      "e5": 1.879,
      "e10": 1.819,
      "isOpen": true,
      "houseNumber": "292",
      "postCode": 12557
    },
    {
      "id": "3bddb178-2d83-40a3-8027-8f651e90c0e3",
      "name": "Sprint Berlin Barnetstr.",
      "brand": "Sprint",
      "street": "Barnetstr.",
      "place": "Berlin",
      "lat": 52.394814,
      "lng": 13.400066,
      "dist": 14.3,
      "diesel": 1.699,
      "e5": 1.879,
      "e10": 1.819,
      "isOpen": true,
      "houseNumber": "67a",
      "postCode": 12305
    },
    {
      "id": "8cb9d3bb-31aa-4939-9484-a7ded6e472f5",
      "name": "TotalEnergies Berlin",
      "brand": "TotalEnergies",
      "street": "Zepernicker Str.",
      "place": "Berlin",
      "lat": 52.640982,
      "lng": 13.514269,
      "dist": 14.3,
      "diesel": 1.659,
      "e5": 1.869,
      "e10": 1.809,
      "isOpen": true,
      "houseNumber": "9-10",
      "postCode": 13125
    },
    {
      "id": "50d2feb7-90d7-4f2f-b74d-d46d7baccb44",
      "name": "Aral Tankstelle",
      "brand": "ARAL",
      "street": "Heerstra\u00dfe",
      "place": "Berlin",
      "lat": 52.50708,
      "lng": 13.2277813,
      "dist": 14.3,
      "diesel": 1.689,
      "e5": 1.899,
      "e10": 1.839,
      "isOpen": true,
      "houseNumber": "136",
      "postCode": 14055
    },
    {
      "id": "9a770cfe-1d94-4dfd-9e82-454e33a25144",
      "name": "Sprint Berlin F\u00fcrstenwalder Damm",
      "brand": "Sprint",
      "street": "F\u00fcrstenwalder Damm",
      "place": "Berlin",
      "lat": 52.45627,
      "lng": 13.62115,
      "dist": 14.3,
      "diesel": 1.629,
      "e5": 1.849,
      "e10": 1.789,
      "isOpen": true,
      "houseNumber": "445",
      "postCode": 12587
    },
    {
      "id": "54666a4e-a914-4f79-8ca8-2a9893267d7e",
      "name": "Aral Tankstelle",
      "brand": "ARAL",
      "street": "Altlandsberger Chaussee",
      "place": "Hoppegarten",
      "lat": 52.5440521,
      "lng": 13.64699,
      "dist": 14.4,
      "diesel": 1.649,
      "e5": 1.879,
      "e10": 1.819,
      "isOpen": true,
      "houseNumber": "27",
      "postCode": 15366
    },
    {
      "id": "e1a15081-25cb-9107-e040-0b0a3dfe563c",
      "name": "Sch\u00f6nefeld, Waltersdorfer Chaussee 24",
      "brand": "HEM",
      "street": "Waltersdorfer Chaussee",
      "place": "Sch\u00f6nefeld",
      "lat": 52.399621,
      "lng": 13.516635,
      "dist": 14.5,
      "diesel": 1.649,
      "e5": 1.859,
      "e10": 1.799,
      "isOpen": true,
      "houseNumber": "24",
      "postCode": 12529
    },
    {
      "id": "23652c17-e7ef-432a-9e76-4316ccbde976",
      "name": "Shell Berlin Am Juliusturm 33",
      "brand": "Shell",
      "street": "Am Juliusturm",
      "place": "Berlin",
      "lat": 52.536639,
      "lng": 13.221841,
      "dist": 14.7,
      "diesel": 1.679,
      "e5": 1.849,
      "e10": 1.809,
      "isOpen": true,
      "houseNumber": "33",
      "postCode": 13599
    },
    {
      "id": "735a2db4-8f05-4118-819a-d6689a23db0c",
      "name": "BERLIN - OSTPREUSSENDAMM 89",
      "brand": "AGIP ENI",
      "street": "Ostpreussendamm",
      "place": "Berlin",
      "lat": 52.41503210613,
      "lng": 13.30259408705,
      "dist": 14.9,
      "diesel": 1.679,
      "e5": 1.899,
      "e10": 1.839,
      "isOpen": true,
      "houseNumber": "89",
      "postCode": 12207
    },
    {
      "id": "be9e82a0-b2f1-45c0-80b9-699bde1b4d30",
      "name": "Esso Tankstelle",
      "brand": "ESSO",
      "street": "LICHTENRADER DAMM 274",
      "place": "BERLIN",
      "lat": 52.387691,
      "lng": 13.40843,
      "dist": 15,
      "diesel": 1.699,
      "e5": 1.889,
      "e10": 1.829,
      "isOpen": true,
      "houseNumber": "",
      "postCode": 12305
    },
    {
      "id": "403be9a4-04fb-4bd0-9b52-ca1cfb8490c5",
      "name": "TotalEnergies Berlin",
      "brand": "TotalEnergies",
      "street": "Adlergestell",
      "place": "Berlin",
      "lat": 52.414343,
      "lng": 13.572973,
      "dist": 15,
      "diesel": 1.639,
      "e5": 1.859,
      "e10": 1.799,
      "isOpen": true,
      "houseNumber": "543",
      "postCode": 12527
    },
    {
      "id": "a9e8fcc3-ba9d-4981-a7df-2b11f091fad8",
      "name": "Esso Tankstelle",
      "brand": "ESSO",
      "street": "BERLINER STR. 20-22",
      "place": "BERLIN",
      "lat": 52.435687,
      "lng": 13.266519,
      "dist": 15,
      "diesel": 1.679,
      "e5": 1.909,
      "e10": 1.849,
      "isOpen": true,
      "houseNumber": "",
      "postCode": 14169
    },
    {
      "id": "2ad322ee-548f-4606-8c45-8665e898fd39",
      "name": "TotalEnergies Berlin",
      "brand": "TotalEnergies",
      "street": "Berliner Str",
      "place": "Berlin",
      "lat": 52.436134,
      "lng": 13.26584,
      "dist": 15,
      "diesel": 1.679,
      "e5": 1.909,
      "e10": 1.849,
      "isOpen": true,
      "houseNumber": "15A",
      "postCode": 14169
    },
    {
      "id": "ba57bcbc-7b94-4d3a-896f-21ff77773667",
      "name": "Shell Berlin Bahnhofstr. 1",
      "brand": "Shell",
      "street": "Bahnhofstr.",
      "place": "Berlin",
      "lat": 52.386922,
      "lng": 13.407901,
      "dist": 15,
      "diesel": 1.729,
      "e5": 1.889,
      "e10": 1.849,
      "isOpen": true,
      "houseNumber": "1",
      "postCode": 12305
    },